,#id,lon,lat,name,elevation,usaf-id,wban-id
0,17,10.0,62.133,FOLLDAL-FREDHEIM,694.0,12500,99999
1,18,-52.783,47.516999999999996,ST JOHNS WEST CLIMATE,110.0,712500,99999
2,33,14.2,45.766999999999996,POSTOJNA,533.0,141120,99999
3,38,-94.71700000000001,56.35,GILLAM AIRPORT,145.0,719120,99999
4,39,10.517000000000001,56.1,SLETTERHAGE FYR,6.0,60730,99999
5,40,-16.117,65.633,GRIMSSTADIR,386.0,40730,99999
6,44,24.566999999999997,65.033,HAILUOTO MARJANIEMI,7.3,28730,99999
7,46,133.733,45.867,DAL'NERECHENSK,101.0,318730,99999
8,64,60.3,56.083,VERHNIJ UFALEJ,399.0,285410,99999
9,68,62.333,59.433,GARI,131.0,280490,99999
10,72,135.188,48.528,NOVY,75.0,317350,99999
11,88,-94.07,58.72,CHURCHILL CLIMATE,29.0,716960,99999
12,96,8.083,47.383,BUCHS-AARAU,389.0,66330,99999
13,97,12.083,45.685,ISTRANA,41.8,160980,99999
14,100,22.55,57.183,STENDE,79.0,263180,99999
15,109,111.23299999999999,62.533,TUOJ-HAYA,259.7,247250,99999
16,113,-56.1,51.383,ST ANTHONY  NFLD,29.0,715580,99999
17,117,89.2,55.533,GGP KATEK,318.8,295580,99999
18,122,-0.8,51.683,HIGH WYCOMBE HQAIR,205.0,36600,99999
19,124,72.933,66.633,NYDA,7.0,233450,99999
20,127,19.85,45.333,NOVI SAD RIMSKI SANCEVI,87.0,131680,99999
21,130,27.633000000000003,62.9,KUOPIO SAVILAHTI,88.3,29550,99999
22,131,27.45,68.433,SAARISELKA KAUNISPAA,438.0,28170,99999
23,132,45.016999999999996,62.233000000000004,VERHNJAJA TOJMA,58.0,227780,99999
24,148,-123.87,49.052,NANAIMO,28.3,718900,99999
25,151,-76.53,64.23,CAPE DORSET CLIMATE,50.0,715750,99999
26,154,-80.6,51.283,MOOSONEE,9.0,713980,99999
27,155,118.26700000000001,56.9,CHARA,711.0,303720,99999
28,160,9.35,53.133,ROTENBURG,61.0,102340,99999
29,168,-160.433,66.983,BOB BARKER MEMORIAL AIRPORT,51.2,701196,102
30,169,-168.1,65.617,WALES AIRPORT,7.0,701337,103
31,170,-154.36700000000002,63.016999999999996,NIKOLAI AIRPORT,126.2,702625,104
32,171,-162.033,61.867,MARSHALL DON HUNTER SR AIRPOR,31.1,702628,105
33,172,-161.233,60.9,KIPNUK AIRPORT,9.1,702686,106
34,173,-157.333,59.45,NEW STUYAHOK AIRPORT,92.1,702697,107
35,174,-165.567,61.85,SCAMMON BAY AIRPORT,4.3,703054,108
36,175,-159.05,58.983000000000004,MANOKOTAK AIRPORT,15.9,703055,109
37,177,-161.167,56.016999999999996,NELSON LAGOON AIRPORT,4.3,703058,110
38,178,-161.224,64.37,SHAKTOOLIK AIRPORT,7.0,703888,111
39,179,-157.267,59.733000000000004,KOLIGANEK AIRPORT,82.3,703925,112
40,180,-161.02200000000002,66.818,ROBERT (BOB) CURTIS MEMORIAL,17.1,704898,113
41,183,-123.81700000000001,45.417,TILLAMOOK AIRPORT,11.3,720202,118
42,184,-122.98299999999999,46.683,CHEHALIS CENTRALIA AIRPORT,54.3,720254,119
43,187,-114.367,51.1,SPRINGBANK A,1200.0,718600,99999
44,189,24.9,67.65,KITTILA KK,181.0,28600,99999
45,193,-162.11,63.49,ST MICHAEL AIRPORT,28.0,720382,123
46,215,27.416999999999998,68.417,INARI SAARISELKA,302.0,27220,99999
47,232,121.93299999999999,53.967,EROFEJ PAVLOVIC,522.0,306830,99999
48,235,-133.5,68.75,TRAIL VALLEY  NWT,85.0,716830,99999
49,236,-97.633,46.217,GWINNER ROGER MELROE FIELD AI,386.2,720491,150
50,246,73.1,52.5,BESTOBE,168.0,350920,99999
51,248,-113.167,53.266999999999996,NEW SERPTA AGCM,765.0,710670,99999
52,262,14.567,58.567,AXSTAL,93.0,25450,99999
53,264,-112.867,53.983000000000004,RADWAY AGCM,625.0,715450,99999
54,291,2.862,51.199,OOSTENDE,4.0,64070,99999
55,296,13.7,60.683,MALUNG A,306.0,24070,99999
56,309,9.288,61.016000000000005,LEIRIN,822.0,13680,99999
57,311,17.75,62.217,BRAMON,18.0,23680,99999
58,350,16.3,56.683,KALMAR,4.0,26700,99999
59,361,-110.917,49.917,SEVEN PERSONS AGDM  ALTA,766.0,715250,99999
60,364,-63.833,46.433,SUMMERSIDE,12.0,717020,99999
61,365,-118.03299999999999,52.933,JASPER WARDEN  ALTA,1020.0,714860,99999
62,373,40.35,56.117,VLADIMIR,172.0,275320,99999
63,375,132.25,50.867,CEKUNDA,272.0,315320,99999
64,377,58.5,48.633,MUGODZARSKAJA,398.0,355320,99999
65,396,74.383,56.9,TARA,73.0,284930,99999
66,398,124.883,55.967,NAGORNYJ,861.0,304930,99999
67,411,12.218,65.461,BRONNOY,7.6,11120,99999
68,414,10.564,47.14,LANDECK,806.5,111120,99999
69,415,6.917000000000001,46.333,AIGLE,383.0,67120,99999
70,423,-99.15100000000001,47.451,CARRINGTON MUNICIPAL AIRPORT,490.1,720737,266
71,434,24.085,54.964,KAUNAS INTL,78.0,266295,99999
72,443,-99.62100000000001,48.88399999999999,ROLLA MUNICIPAL AIRPORT,555.0,720853,281
73,444,-103.98200000000001,46.925,BEACH AIRPORT,840.0,720854,282
74,445,-97.632,48.784,CAVALIER MUNICIPAL AIRPORT,272.2,720855,283
75,447,-99.236,48.48,CANDO MUNICIPAL AIRPORT,450.2,720858,285
76,449,-103.29700000000001,48.928999999999995,CROSBY MUNICIPAL AIRPORT,594.1,720861,287
77,450,26.133000000000003,46.0,TARGU SECUIESC,569.0,152170,99999
78,451,-102.898,48.381,TIOGA MUNICIPAL AIRPORT,691.0,720863,289
79,456,-2.149,47.312,MONTOIR,4.0,72170,99999
80,459,-97.37100000000001,48.405,HUTSON FIELD AIRPORT,251.2,720865,291
81,460,-101.581,47.29,MERCER COUNTY REGIONAL AIRPOR,553.2,720866,292
82,461,-100.024,48.39,RUGBY MUNICIPAL AIRPORT,472.1,720867,293
83,462,-103.25399999999999,47.79600000000001,WATFORD CITY MUNICIPAL AIRPOR,643.1,720868,294
84,464,-100.89399999999999,46.768,MANDAN MUNICIPAL AIRPORT,593.1,720871,296
85,465,-89.883,46.117,MANITOWISH WATERS AIRPORT,491.0,720887,297
86,468,21.733,48.667,MILHOSTOV,106.0,119780,99999
87,469,130.917,45.3,JIXI,273.5,509780,99999
88,470,-140.15,69.15,IVVAVIK NAT. PARK  YT,244.0,719780,99999
89,473,-123.43700000000001,63.208999999999996,WRIGLEY,149.0,719465,99999
90,475,19.683,51.383,PIOTRKOW TRYBUNALSKI,205.1,121465,99999
91,498,15.117,60.117,SKEPPMORA,240.0,24720,99999
92,499,9.533,46.867,CHUR,556.0,67860,99999
93,500,8.0,47.183,EGOLZWIL,522.0,66480,99999
94,502,-23.933000000000003,64.9,GUFUSKALAR,7.0,41040,99999
95,517,-102.406,48.301,STANLEY MUNICIPAL AIRPORT,684.3,720909,300
96,518,-98.01799999999999,46.942,BARNES COUNTY MUNICIPAL AIRPO,427.0,720911,301
97,538,-116.295,48.726000000000006,BOUNDARY COUNTY AIRPORT,711.1,720923,310
98,540,-91.98100000000001,45.506,CUMERLAND MUNICIPAL AIRPORT,378.3,720929,316
99,542,-100.245,46.218,LINTON MUNICIPAL AIRPORT,542.2,720933,318
100,543,37.05,67.35,KRASNOSCEL'E,156.0,222350,99999
101,548,19.1,50.817,CZESTOCHOWA,295.0,125500,99999
102,549,17.55,53.717,CHOJNICE,172.0,122350,99999
103,550,-105.71700000000001,75.367,REA POINT  NU,15.0,719830,99999
104,551,-90.2,51.45,PICKLE LAKE  A,386.2,718450,99999
105,554,135.317,46.533,KRASNYJ JAR,130.0,318450,99999
106,556,130.967,47.733000000000004,EKATERINO-NIKOL'SKOE,73.0,317070,99999
107,559,-60.05,46.167,SYDNEY A,61.9,717070,99999
108,560,-66.6,45.92,FREDERICKTON CDA CS,35.0,716680,99999
109,562,15.067,47.85,LUNZ,615.0,111700,99999
110,563,16.633,48.667,POYSDORF,207.0,110320,99999
111,569,100.633,54.6,TULUN,522.0,305040,99999
112,576,-110.35,51.383,OYEN AGDM  ALTA,767.0,713420,99999
113,601,-52.933,65.417,MANIITSOQ,15.0,42040,99999
114,605,3.633,53.266999999999996,K14-FA-1C,27.0,62040,99999
115,614,-97.90299999999999,48.941,WALHALLA MUNICIPAL AIRPORT,290.2,722857,368
116,618,-18.017,66.533,GRIMSEY,17.0,41650,99999
117,620,11.717,56.2,HESSELOE,18.0,61650,99999
118,621,66.083,58.717,KUMINSKAYA,81.2,281650,99999
119,639,27.866999999999997,52.217,ZHITCKOVICHI,137.0,330270,99999
120,640,-0.45,49.173,CARPIQUET,78.0,70270,99999
121,641,141.63299999999998,52.217,POGIBI,6.0,320270,99999
122,648,-166.35,65.233,TELLER AIRPORT,89.0,749230,393
123,660,131.983,47.233000000000004,FUJIN,65.0,507880,99999
124,679,65.05,63.933,BEREZOVO,32.0,236310,99999
125,682,-3.0669999999999997,53.5,CROSBY,9.0,33160,99999
126,684,22.267,48.633,UZHHOROD,124.0,336310,99999
127,685,46.717,61.233000000000004,KOTLAS,56.0,228870,99999
128,686,21.783,61.483000000000004,PORI RAILWAY STATION,10.1,29260,99999
129,687,39.3,62.133,KONEVO,101.3,227490,99999
130,693,-60.217,55.45,HOPEDALE (AUT)  NFLD,12.0,719000,99999
131,699,5.207999999999999,59.345,KARMOY,26.2,14080,99999
132,703,4.646,50.243,FLORENNES,285.0,64560,99999
133,706,-154.183,56.933,AKHIOK,13.0,703926,99999
134,731,15.45,47.083,GRAZ UNIVERSITAET,378.0,112900,99999
135,751,63.617,53.217,KOSTANAY,170.0,289520,99999
136,753,20.317,49.033,POPRAD-GANOVCE,703.0,119520,99999
137,756,-8.25,51.8,ROCHES POINT,41.0,39520,99999
138,773,-116.12299999999999,45.943000000000005,IDAHO COUNTY AIRPORT,1010.1,726873,452
139,783,14.458,46.224,LJUBLJANA,388.0,140140,99999
140,786,11.433,46.883,VIPITENO,921.0,160140,99999
141,795,-122.68299999999999,49.2,PITT MEADOWS CAMPBELL SCIENTI,5.0,717750,99999
142,796,-122.287,47.104,PIERCE COUNTY AIRPORT THUN FI,164.3,720388,469
143,800,11.835999999999999,49.218,HOHENFELS AAF,443.5,107750,99999
144,825,-149.653,61.266000000000005,BRYANT ARMY AIRFIELD HELIPORT,118.3,702700,489
145,828,8.167,46.717,MEIRINGEN,590.6,66370,99999
146,832,-157.162,66.888,SHUNGNAK AIRPORT,62.8,701719,490
147,845,37.5,47.033,MARIUPOL',70.0,347120,99999
148,857,-60.983000000000004,46.367,NORTHEAST MARGAREE (AUT),46.0,717367,99999
149,858,-72.767,45.367,GRANBY,86.0,710367,99999
150,871,-19.733,64.083,BURFELL,249.0,41540,99999
151,874,-68.883,48.4,ILE BICQUETTE  QUE,7.0,713850,99999
152,875,16.033,47.817,HOHE WAND/HOCHKOGELHAUS,939.0,113850,99999
153,878,10.905999999999999,48.071000000000005,LANDSBERG LECH,623.0,108570,99999
154,879,-127.367,50.681000000000004,PORT HARDY,21.6,711090,99999
155,882,2.633,47.053000000000004,AVORD,176.8,72554,99999
156,893,-62.281000000000006,82.51799999999999,ALERT,30.5,710823,99999
157,902,-139.041,61.371,BURWASH,806.8,710010,99999
158,906,17.15,48.4,MALACKY,207.0,118010,99999
159,909,99.53299999999999,57.65,CHERVYANKA,220.5,293930,99999
160,911,71.25,54.9,ISIL'KUL',125.0,286880,99999
161,915,42.783,62.817,DVINSKIJ BEREZNIK,34.0,227620,99999
162,934,3.283,52.0,EURO PLATFORM,18.0,63210,99999
163,936,133.233,49.4,URMI,198.0,316240,99999
164,948,-69.618,61.04600000000001,QUAQTAQ,32.0,719035,99999
165,949,-92.116,62.81100000000001,RANKIN INLET,28.7,710830,99999
166,950,-115.55,51.2,BANFF CS,1397.0,711220,99999
167,951,-111.21700000000001,56.65,FORT MCMURRAY CS  ALTA,369.0,715850,99999
168,952,21.717,50.7,SANDOMIERZ,218.0,125850,99999
169,958,144.4,64.55,NERA,518.5,245850,99999
170,966,52.483000000000004,62.233000000000004,LUN',120.0,237080,99999
171,968,-3.6,54.516999999999996,ST BEES HEAD NO.2,123.0,32100,99999
172,969,-2.8680000000000003,56.373000000000005,LEUCHARS,11.6,31710,99999
173,976,34.266999999999996,61.817,PETROZAVODSK,110.0,228200,99999
174,978,11.333,58.1,MASESKAR,16.0,25050,99999
175,979,24.033,68.067,MUONIO LAUKUKERO,762.0,28200,99999
176,982,20.733,62.983000000000004,STROMMINGSBADN,3.7,27810,99999
177,990,26.233,56.85,MADONA,133.0,264470,99999
178,992,-100.98299999999999,49.283,MELITA  MAN,446.0,714470,99999
179,993,9.732999999999999,47.433,DORNBIRN,410.0,113020,99999
180,994,13.283,46.717,WEISSENSEE/GATSCHACH,954.0,112630,99999
181,996,-108.523,54.125,MEADOW LAKE  A,480.4,711250,99999
182,997,24.316999999999997,61.117,HATTULA LEPAA AWS,87.0,27040,99999
183,998,18.383,60.533,ORSKAR,9.0,24880,99999
184,1004,19.134,54.027,MALBORK,4.9,123765,99999
185,1006,101.698,56.371,BRATSK,490.7,303090,99999
186,1015,-80.617,51.283,MOOSONEE RCS  ONT,9.0,713090,99999
187,1053,161.283,68.75,CHERSKIJ,28.0,251230,99999
188,1056,135.5,61.867,OHOTSKIJPEREVOZ,140.6,248710,99999
189,1060,11.033,46.15,PAGANELLA MOUNTAIN,2129.0,160220,99999
190,1061,80.367,52.016999999999996,VOLCIHA,208.0,360220,99999
191,1066,12.767000000000001,56.033,HELSINGBORG,44.0,26110,99999
192,1080,-89.43299999999999,65.867,WAGER BAY (AUT)  MAN,18.0,710490,99999
193,1081,-117.117,55.9,JEAN COTE AGCM,638.0,715410,99999
194,1086,-96.5,56.033,KELSEY DAM CS  MAN,183.0,715720,99999
195,1090,-43.117,60.033,PRINS CHRISTIAN,19.0,43900,99999
196,1091,-7.6,54.333,THOMASTOWN,72.0,39010,99999
197,1092,33.283,47.317,VELYKA OLEKSANDRIVKA,56.0,338620,99999
198,1097,16.983,60.266999999999996,KERSTINBO,57.0,24820,99999
199,1117,-100.26700000000001,70.633,GATESHEAD ISLAND,20.0,711410,99999
200,1118,13.217,47.4,BISCHOFSHOFEN,548.0,111410,99999
201,1130,110.6,48.617,BINDER,747.0,442570,99999
202,1136,-1.535,54.292,LEEMING,40.2,32570,99999
203,1148,9.982999999999999,54.85,KEGNAES,19.0,61190,99999
204,1153,18.017,66.883,KVIKKJOKK ARRENJARKA,320.0,21190,99999
205,1157,18.333,52.817,INOWROCLAW,83.0,121052,99999
206,1172,55.533,55.417,BIRSK,186.0,286210,99999
207,1190,43.733000000000004,50.95,ELAN',132.0,342530,99999
208,1192,-71.393,46.791000000000004,QUEBEC JEAN LESAGE INTL,74.4,717080,99999
209,1213,-21.9,64.133,REYKJAVIK,53.0,41300,99999
210,1216,-1.993,51.505,LYNEHAM,156.4,37400,99999
211,1222,94.4,49.65,BARUUNTURUUN,1232.0,442130,99999
212,1226,38.266999999999996,46.8,EJSK,3.0,347270,99999
213,1228,28.9,69.583,INARI KIRAKKAJARVI,106.0,28580,99999
214,1230,49.65,60.367,OB'JACEVO,152.0,229960,99999
215,1231,137.05,48.6,TIVJAKU,403.0,317540,99999
216,1237,152.38299999999998,61.133,TALATA,707.5,258080,99999
217,1245,-63.283,51.867,LAC EON  QUE,589.0,714210,99999
218,1249,3.25,56.55,EKOFISK OIL PLTFRM,48.8,14033,99999
219,1250,-3.472,48.754,LANNION,88.4,71180,99999
220,1251,7.832999999999999,46.2,GRAECHEN,1605.2,67280,99999
221,1252,-20.3,65.667,BLONDUOS,22.0,41450,99999
222,1253,-71.217,47.55,PARC DES LAURENTIDES  QUE,791.0,713820,99999
223,1254,13.288,52.56,TEGEL,37.2,103820,99999
224,1255,15.9,47.783,PUCHBERG,582.0,113820,99999
225,1260,-0.433,53.867,LECONFIELD,7.0,33820,99999
226,1266,16.367,45.5,SISAK,106.0,142440,99999
227,1272,-112.05,49.133,MILK RIVER  ALTA,1050.0,712440,99999
228,1275,36.0,52.933,OREL,196.0,279060,99999
229,1277,-68.417,58.1,KUUJJUAQ A,39.3,719060,99999
230,1279,22.75,60.167,KEMIONSAARI KEMIO,12.0,29060,99999
231,1287,42.067,61.083,VEL'SK,91.0,228670,99999
232,1288,-101.1,53.967,THE PAS AIRPORT,270.4,718670,99999
233,1289,80.25,61.1,LAR' YAK,57.0,238670,99999
234,1294,65.55,53.317,SARYKOL,216.0,288670,99999
235,1309,8.514,49.473,MANNHEIM CITY,94.2,107290,99999
236,1321,43.433,56.683,GORODEC,103.0,274530,99999
237,1327,41.1,47.583,KONSTANTINOVSK,66.0,346440,99999
238,1330,34.2,45.65,KLEPYNINE,37.0,339390,99999
239,1331,68.967,60.333,ALTAY,32.3,239390,99999
240,1336,33.55,60.717,LODEJNOE POLE,23.0,229130,99999
241,1337,27.883000000000003,61.9,JUVA PARTALA,111.5,27360,99999
242,1338,16.467,57.7,GLADHAMMAR,31.0,25590,99999
243,1339,32.033,59.45,KIRISHI,26.0,260800,99999
244,1341,15.583,54.183,KOLOBRZEG,5.0,121000,99999
245,1353,-126.75,52.383,BELLA COOLA AIRPORT,35.7,715330,99999
246,1354,10.786,59.379,RYGGE,53.0,14940,99999
247,1356,-96.0,64.317,BAKER LAKE CLIMATE  NU,51.0,713560,99999
248,1359,-58.35,54.72,TUKIALIK BAY,683.0,711790,99999
249,1362,24.35,59.917,KIRKKONUMMI MAKILUOTO,2.0,27940,99999
250,1365,-111.667,53.617,TWO HILLS AGDM  ALTA,678.0,712760,99999
251,1366,-102.462,51.265,YORKTON MUNI,498.3,711380,99999
252,1369,39.5,51.0,LISKI,115.0,342310,99999
253,1371,14.6,63.683,FOLLINGE,362.0,22310,99999
254,1374,100.167,49.633,MUREN,1283.0,442310,99999
255,1383,-122.5,53.016999999999996,QUESNEL,545.0,711920,99999
256,1384,17.65,68.417,STRAUMSNES,200.0,11920,99999
257,1388,16.333,47.2,KLEINZICKEN,267.0,111920,99999
258,1394,11.419,51.855,COCHSTEDT,180.0,106164,99999
259,1398,7.35,45.733000000000004,AOSTA POLLEIN,551.0,160540,99999
260,1401,-78.75,51.483000000000004,WASKAGANISH AIRPORT,23.0,718964,99999
261,1406,112.583,59.45,VITIM,190.0,300540,99999
262,1407,135.15,59.183,UST'-JUDOMA,212.0,310540,99999
263,1416,-71.5,46.9,VALCARTIER AIRPORT,168.0,717160,99999
264,1433,22.066999999999997,58.917,RISTNA,9.0,261150,99999
265,1439,6.2,51.5,ARCEN AWS,19.0,63910,99999
266,1451,-17.983,64.933,SANDBUDIR,821.0,41680,99999
267,1456,77.867,60.433,ALEKSANDROVSKOE,48.0,239550,99999
268,1462,-105.55,50.317,MOOSE JAW CS  SASK,577.0,715390,99999
269,1463,-8.491,51.841,CORK,153.0,39550,99999
270,1467,28.930999999999997,46.928000000000004,CHISINAU INTL,121.6,338387,99999
271,1474,-132.13,54.03,MASSET AIRPORT,7.0,714724,99999
272,1475,17.1,57.367,OLANDS NORRA UDDE,4.0,25750,99999
273,1477,27.017,69.75,UTSJOKI KEVO KEVOJARVI,76.0,28900,99999
274,1479,21.166999999999998,62.2,KRISTIINANKAUPUNKI LIGHTHOUSE,21.7,27520,99999
275,1485,-113.633,50.0,CLARESHOLM,1009.0,712340,99999
276,1486,-17.983,63.516999999999996,SKARDSFJORUVITI,9.0,41700,99999
277,1487,9.85,63.317,ORKDAL-THAMSHAMN,4.0,12340,99999
278,1489,-113.333,50.667,MOSSLEIGH AGCM,965.0,710570,99999
279,1492,94.5,70.967,VOLOCHANKA,40.0,209820,99999
280,1493,110.46700000000001,51.35,HILOK,802.0,308440,99999
281,1505,23.133000000000003,46.317,ROSIA MONTANA,1193.0,151840,99999
282,1508,-134.861,67.408,FORT MCPHERSON,35.4,719574,99999
283,1511,18.617,49.233000000000004,ZILINA/HRICOV,311.0,118410,99999
284,1512,-88.9,50.283,ARMSTRONG (AUT)  ONT,323.0,718410,99999
285,1516,133.033,59.633,UST'-MIL',179.4,310410,99999
286,1517,-61.368,45.657,PORT HAWKESBURY,114.9,710410,99999
287,1518,31.017,52.527,GOMEL,143.9,330410,99999
288,1529,101.98299999999999,52.967,INGA,543.0,307030,99999
289,1531,24.733,60.2,ESPOO SEPANKYLA,31.5,27030,99999
290,1532,6.317,46.667,LES CHARBONNIERES,1045.1,67030,99999
291,1534,36.367,54.55,KALUGA,198.8,277030,99999
292,1535,152.417,62.917,SEJMCHAN,205.0,257030,99999
293,1543,8.517000000000001,47.433,ZUERICH-AFFOLTERN,441.0,66640,99999
294,1544,115.617,53.533,TUNGOKOCEN,811.0,306640,99999
295,1546,15.265,56.266999999999996,RONNEBY,58.2,26640,99999
296,1552,93.917,52.15,TURAN,852.4,360920,99999
297,1554,-128.576,54.468999999999994,TERRACE,217.3,719510,99999
298,1555,-61.8,50.183,NATASHQUAN A,11.0,718130,99999
299,1556,-95.85,68.63600000000001,GJOA HAVEN,46.3,715970,99999
300,1566,12.28,57.663000000000004,LANDVETTER,154.2,25260,99999
301,1570,-113.28299999999999,51.033,STRATHMORE AGDM  ALTA,967.0,715260,99999
302,1581,18.733,59.35,SKARPO A,22.0,24870,99999
303,1585,13.833,49.467,KOCELOVICE,521.9,114870,99999
304,1586,-105.93299999999999,49.733000000000004,ASSINIBOIA AIRPORT  SASK,726.0,714870,99999
305,1591,-105.13799999999999,69.108,CAMBRIDGE BAY,27.4,719250,99999
306,1593,-102.46700000000001,51.266999999999996,YORKTON,498.4,718860,99999
307,1600,16.733,62.766999999999996,SILLRE,205.0,23490,99999
308,1601,39.533,66.183,PJALICA,9.0,223490,99999
309,1608,-111.7,54.5,RICH LAKE AGDM  ALTA,585.0,713490,99999
310,1617,31.983,49.417,CHERKASY,117.0,338151,99999
311,1629,15.4,53.766999999999996,RESKO-SMOLSKO,52.9,122100,99999
312,1637,25.033,48.533,KOLOMYIA,298.0,336510,99999
313,1639,14.085999999999999,55.922,KRISTIANSTAD,23.2,26510,99999
314,1656,-113.9,52.183,RED DEER REGIONAL,904.6,718780,99999
315,1657,-122.054,52.183,WILLIAMS LAKE,940.3,711040,99999
316,1661,116.15,62.266999999999996,KRESTYAH,139.1,247370,99999
317,1662,-113.75,52.45,LACOMBE CDA 2  ALTA,860.0,712420,99999
318,1667,12.0,57.717,GOTEBORG,2.0,25130,99999
319,1670,-61.783,50.183,NATASHQUAN A,11.9,715130,99999
320,1671,128.467,50.917,BELOGORSK,178.0,315130,99999
321,1672,7.143,50.86600000000001,KOLN BONN,92.0,105130,99999
322,1674,36.167,51.766999999999996,KURSK,247.0,340090,99999
323,1681,35.483000000000004,61.016999999999996,VOSNESEN'E,41.0,228290,99999
324,1685,8.083,50.708,SIEGERLAND,599.2,106162,99999
325,1693,-54.568000000000005,48.937,GANDER INTL,151.2,718030,99999
326,1700,-95.6,49.016999999999996,SPRAGUE,329.0,714490,99999
327,1701,-103.637,48.174,SLOULIN FIELD INTERNATIONAL A,579.7,727670,94014
328,1704,10.198,52.919,FASSBERG,74.7,102460,99999
329,1705,76.983,79.483,OSTROV VIZE,10.0,200690,99999
330,1708,-52.933,48.167,GRATES COVE,46.0,713360,99999
331,1710,103.9,45.45,SAIKHAN-OVOO,1316.0,443360,99999
332,1712,40.567,49.933,BOGUCAR,84.0,343360,99999
333,1717,25.15,50.1,BRODY,228.0,332970,99999
334,1723,23.633000000000003,45.433,OBARSIA LOTRULUI,1350.0,152970,99999
335,1733,-98.9,48.117,DEVILS LAKE MUNI AIRPORT,439.2,727573,94928
336,1735,-60.933,46.633,CHETICAMP CS,44.0,719590,99999
337,1741,129.717,62.016999999999996,JAKUTSK,101.0,249590,99999
338,1743,28.217,61.05,LAPPEENRANTA LEPOLA,104.4,29590,99999
339,1749,-109.81700000000001,47.383,DELTA (DENTON),1093.3,720997,99999
340,1750,7.5360000000000005,49.403,LANDSTUHL AHP,355.7,106597,99999
341,1755,82.65100000000001,55.013000000000005,TOLMACHEVO,111.3,296340,99999
342,1766,-162.27,55.17,KING COVE,47.0,703059,99999
343,1777,23.783,46.583,TURDA,428.0,151430,99999
344,1786,-114.53299999999999,53.817,GLENEVIS AGCM,670.0,715000,99999
345,1794,24.65,60.516999999999996,NURMIJARVI GEOPHSICAL OBSERVA,113.0,29830,99999
346,1795,25.83,66.565,ROVANIEMI,196.6,28450,99999
347,1796,33.95,52.05,DRUZHBA,190.0,330580,99999
348,1797,76.85,69.083,ANTIPAJUTA,3.0,230580,99999
349,1803,-117.883,55.8,EAGLESHAM AGCM,563.0,714610,99999
350,1809,21.767,65.75,SAVAST,12.0,21700,99999
351,1813,90.53299999999999,45.367,BAYTIK SHAN,1651.0,512880,99999
352,1814,28.75,64.933,SUOMUSSALMI PESIO,225.2,28890,99999
353,1819,5.218,60.293,FLESLAND,51.8,13110,99999
354,1823,5.763999999999999,61.393,BRINGELAND,327.0,13230,99999
355,1824,-70.783,46.2,BEAUCEVILLE  QUE,229.0,713230,99999
356,1832,19.683,63.433,JARNASKLUBB,7.0,22840,99999
357,1833,100.133,46.7,GALUUT,2126.0,442840,99999
358,1837,-113.917,53.917,BUSBY AGCM,714.0,712840,99999
359,1840,18.81,45.463,OSIJEK,88.4,142840,99999
360,1842,13.883,66.233,SKAMDAL,5.0,11460,99999
361,1846,12.95,47.05,SONNBLICK,3109.0,111460,99999
362,1851,2.106,48.751999999999995,TOUSSUS LE NOBLE,164.0,71460,99999
363,1852,-93.57700000000001,69.547,TALOYOAK,28.0,719145,99999
364,1854,-109.633,47.016999999999996,MIKE (MOORE),1256.1,721007,99999
365,1858,35.9,59.4,BABAEVO,137.0,270080,99999
366,1860,15.466,78.24600000000001,LONGYEAR,26.8,10080,99999
367,1863,14.0,48.567,ROHRBACH,602.0,110080,99999
368,1864,-112.45,50.883,BASSANO AGCM,807.0,710080,99999
369,1865,23.898000000000003,52.108000000000004,BREST,142.6,330080,99999
370,1866,-1.633,59.533,FAIR ISLE,57.0,30080,99999
371,1868,-106.948,47.326,JORDAN AIRPORT,811.4,727684,94051
372,1869,22.183000000000003,62.417,KAUHAJOKI KUJA-KOKKO,93.0,27690,99999
373,1873,-0.22899999999999998,51.144,CHARLWOOD,68.0,37690,99999
374,1878,-124.15,49.35,BALLENAS ISLAND  BC,13.0,717690,99999
375,1891,9.35,47.25,SAENTIS,2500.0,66800,99999
376,1892,51.917,47.117,ATYRAU,-22.0,357000,99999
377,1895,4.944,45.727,BRON,200.9,74800,99999
378,1898,25.45,45.45,VARFU OMU,2509.0,152800,99999
379,1910,14.383,58.883,GARDSJO,212.0,25460,99999
380,1924,10.35,59.233000000000004,MELSOM,26.0,14810,99999
381,1928,12.633,47.133,ALPINZENTRUM RUDOLFSHUETTE,2310.0,111380,99999
382,1934,10.317,46.983000000000004,ISCHGL/IDALPE,2319.0,113100,99999
383,1939,3.6,51.45,VLISSINGEN,10.0,63100,99999
384,1941,14.6,52.35,SLUBICE,24.0,123100,99999
385,1947,19.383,64.933,NORSJO,310.0,22710,99999
386,1960,4.802,55.722,TYRA E OIL PLATFORM HELIPAD,95.1,60223,99999
387,1973,119.3,60.95,KILEER,249.3,249330,99999
388,1975,-101.67399999999999,47.751000000000005,ECHO (RYDER),640.7,721015,99999
389,1982,33.75,53.533,ZUKOVKA,177.0,268940,99999
390,1987,147.667,61.85,KOLYMSKAYA,838.8,248940,99999
391,1999,64.867,54.467,ZVERINOGOLOVSKOE,117.0,287560,99999
392,2000,19.517,48.117,SZECSENY,153.0,127560,99999
393,2002,23.116999999999997,60.367,SALO KARKKA,2.0,27560,99999
394,2003,8.933,46.467,ACQUAROSSA-COMPROVASCO,552.0,67560,99999
395,2026,165.983,55.2,OSTROV BERINGA,18.0,326180,99999
396,2027,13.067,56.95,TORUP,130.0,26180,99999
397,2031,46.733000000000004,48.217,VERHNIJ BASKUNCHAK,34.0,345790,99999
398,2039,-22.666999999999998,66.1,AEDEY,5.0,40170,99999
399,2045,16.886,51.103,STRACHOWICE,123.1,124240,99999
400,2047,22.25,52.181000000000004,SIEDLCE,155.0,123850,99999
401,2049,16.217,47.833,WIENER NEUSTADT,285.0,111820,99999
402,2073,15.15,45.567,CRNOMELJ,157.0,141200,99999
403,2076,17.533,54.75,LEBA,6.0,121200,99999
404,2077,10.331,55.477,ODENSE,17.1,61200,99999
405,2082,22.5,58.217,KURESSAARE,4.0,261161,99999
406,2083,-102.26899999999999,48.788999999999994,LIMA (BOWBELLS),601.1,721023,99999
407,2086,22.45,68.45,KARESUANDO,330.0,20810,99999
408,2089,9.267000000000001,45.467,MILANO/LINATE,108.0,160810,99999
409,2093,8.083,55.55,BLAAVANDSHUK,18.0,60810,99999
410,2096,-113.69,61.181000000000004,FORT RESOLUTION,160.3,710633,99999
411,2103,9.958,49.391999999999996,NIEDERSTETTEN,468.2,107430,99999
412,2104,42.483000000000004,47.15,ZIMOVNIKI,72.0,347430,99999
413,2109,-1.8,51.2,LARKHILL,133.0,37430,99999
414,2110,-72.98,57.92,RIVIERE AUX FEUILLES,171.0,717430,99999
415,2119,6.95,47.433,FAHY-BONCOURT,597.0,66160,99999
416,2123,76.01899999999999,55.2,TATARSK,112.0,296050,99999
417,2125,170.417,64.683,MARKOVO,26.0,255510,99999
418,2127,32.667,49.083,CHYHYRYN,124.0,336050,99999
419,2129,-123.48299999999999,49.516999999999996,PORT MELLON,123.0,716050,99999
420,2131,7.067,47.133,CHASSERAL,1631.0,66050,99999
421,2134,-124.917,49.317,PORT ALBERNI (AUT)  BC,76.0,714750,99999
422,2135,-104.667,50.433,REGINA RCS  SASK,577.0,715140,99999
423,2142,19.785,50.078,BALICE,241.1,125660,99999
424,2145,92.28299999999999,55.933,SHUMIHA,274.5,295660,99999
425,2147,-114.72,53.43,TOMAHAWK AGDM,814.0,715660,99999
426,2150,-0.083,51.3,KENLEY AIRFIELD,170.0,37810,99999
427,2158,82.75,55.3,KOLYVAN',137.0,296310,99999
428,2160,-66.65,49.1,CAP CHAT  QUE,5.0,714280,99999
429,2164,84.51700000000001,49.2,ULKEN NARYN,401.0,364280,99999
430,2169,14.283,48.3,LINZ/STADT,263.0,110600,99999
431,2170,-116.06700000000001,52.467,NORDEGG CS  ALTA,1362.0,710600,99999
432,2178,-71.967,46.683,DESCHAMBAULT CS  QUE,61.0,713890,99999
433,2179,15.617,48.183,ST POELTEN LANDHAUS,273.0,113890,99999
434,2181,160.833,56.317,KLJUCHI,29.0,323890,99999
435,2193,95.78299999999999,49.65,GANDAN HURYEE,1421.0,442210,99999
436,2197,15.117,46.483000000000004,SLOVENJ GRADEC,444.0,140210,99999
437,2198,79.183,52.25,KLJUCI,142.0,360210,99999
438,2204,-87.93,52.2,LANSDOWNE HOUSE LWIS,254.0,716971,99999
439,2209,-61.05,46.55,GRAND ETANG,13.0,715971,99999
440,2225,17.117,50.183,SERAK,1327.5,117300,99999
441,2235,40.117,53.717,RJAZSK,127.0,278350,99999
442,2240,145.6,63.833,DELYANKIR,800.9,246910,99999
443,2245,-68.2,49.133,BAIE COMEAU,21.6,716910,99999
444,2270,36.317,48.9,LOZOVA,177.0,344090,99999
445,2274,-101.367,51.183,ROBLIN  MAN,540.0,715530,99999
446,2275,89.55,56.217,BOGOTOL,290.0,295530,99999
447,2287,-5.686,55.437,CAMPBELTOWN,12.8,31394,99999
448,2300,27.183000000000003,68.083,SODANKYLA VUOTSO,248.8,28160,99999
449,2302,19.217,66.317,TJAKAAPE,582.0,21410,99999
450,2307,25.666999999999998,49.533,TERNOPIL',329.0,334150,99999
451,2310,-62.683,45.766999999999996,CARIBOU POINT (AUT)  NS,2.0,714150,99999
452,2311,5.638,58.876999999999995,SOLA,8.8,14150,99999
453,2314,-65.73899999999999,47.63,BATHURST,58.8,715740,99999
454,2320,33.983000000000004,50.367,HADIACH,154.0,333760,99999
455,2323,9.6,60.383,GULSVIK II,142.0,13760,99999
456,2324,88.367,66.933,SVETLOGORSK,100.8,233760,99999
457,2339,-112.867,53.683,ELK ISLAND NAT PARK  ALTA,713.7,712380,99999
458,2340,25.816999999999997,45.867,SFANTU GHEORGHE GOVASNA,526.0,152380,99999
459,2341,9.283,62.117,FOKSTUA II,974.0,12380,99999
460,2344,-1.867,55.016999999999996,ALBEMARLE,146.0,32380,99999
461,2348,25.383000000000003,57.9,RUJIENA,12.0,262380,99999
462,2349,23.533,68.75,SIHCCAJAVRI,382.0,11990,99999
463,2350,20.6,46.067,SANNICOLAU MARE,86.2,151990,99999
464,2351,49.567,58.567,KIROV,158.0,271990,99999
465,2353,-128.817,60.117,WATSON LAKE (AUT)  YT,690.0,711990,99999
466,2359,-140.86700000000002,62.417,BEAVER CREEK ARPT,649.0,719675,99999
467,2373,54.75,52.933,SARLYK,190.0,289160,99999
468,2383,65.717,59.617,LEUSI,72.0,280640,99999
469,2394,2.2,61.533,SNORRE B  OIL PLATFORM,90.0,10879,99999
470,2400,11.6,55.733000000000004,HOLBAEK,13.0,61560,99999
471,2418,18.2,50.05,RACIBORZ,206.0,125400,99999
472,2419,158.454,53.168,YELIZOVO,39.9,325400,99999
473,2420,12.2,58.6,KROPPEFJALL-GRANAN,174.0,25400,99999
474,2430,-2.8089999999999997,54.938,CARLISLE,57.9,32220,99999
475,2435,19.898,60.122,MARIEHAMN,5.2,29700,99999
476,2436,19.749000000000002,46.918,KECSKEMET,114.6,129700,99999
477,2438,30.35,62.233000000000004,TOHMAJARVI KEMIE,90.0,28320,99999
478,2443,16.867,54.583,USTKA,11.0,121150,99999
479,2445,15.232999999999999,46.233000000000004,CELJE,243.6,140230,99999
480,2448,35.867,56.883,TVER',137.0,274020,99999
481,2451,-54.8,49.683,TWILLINGATE (AUT)  NFLD,92.0,714020,99999
482,2457,-68.32,47.42,EDMUNSTON,154.0,715900,99999
483,2458,-103.8,49.7,WEYBURN  SASK,589.0,714520,99999
484,2460,12.9,47.4,MARIA ALM,792.0,111370,99999
485,2461,31.1,70.367,VARDO,15.0,10980,99999
486,2466,45.367,50.067,KAMYSIN,119.0,343630,99999
487,2471,92.26700000000001,57.633,PIROVSKOE,179.0,293630,99999
488,2485,38.683,58.1,RYBINSK,105.0,272250,99999
489,2486,56.021,57.915,BOLSHOYE SAVINO,123.1,282250,99999
490,2487,98.2,48.733000000000004,TOSONTSENGEL,1723.0,442250,99999
491,2488,-2.6830000000000003,54.5,SHAP,255.0,32250,99999
492,2493,93.03299999999999,60.367,SEVERO-ENISEJSK,511.0,239860,99999
493,2506,41.8,53.45,MORSANSK,142.0,278480,99999
494,2516,16.25,47.85,WIENER NEUSTADT,272.0,110165,99999
495,2537,10.229,57.504,SINDAL,28.0,60340,99999
496,2541,81.217,51.576,RUBCOVSK,219.0,360340,99999
497,2544,18.517,54.567,OKSYWIE,70.0,121420,99999
498,2545,-116.333,58.167,LA CRETE AGCM,323.0,715420,99999
499,2551,6.65,60.317,ULLENSVANG,12.0,13420,99999
500,2559,-21.783,64.35,GRUNDARTANGI,5.0,41260,99999
501,2562,27.933000000000003,49.567,KHMELNYK,284.0,334390,99999
502,2563,15.0,61.667,HAMRA,455.0,23290,99999
503,2565,-1.217,50.8,SOLENT,13.0,38740,99999
504,2570,-6.869,56.498999999999995,TIREE,11.6,31000,99999
505,2575,24.467,58.417,PARNU,47.0,260381,99999
506,2582,44.45,64.017,KARPOGORY,65.1,226710,99999
507,2587,46.333,55.183,PORETSKOE,136.0,276750,99999
508,2588,27.833000000000002,58.733000000000004,GDOV,40.0,261570,99999
509,2590,-139.128,64.043,DAWSON CITY,370.3,719660,99999
510,2591,-66.8,54.8,SCHEFFERVILLE A,520.9,718280,99999
511,2593,-113.383,49.783,FORT MACLEOD AGCM,978.0,717890,99999
512,2597,11.85,47.167,MAYRHOFEN,633.0,113300,99999
513,2601,-113.28299999999999,49.2,CARDSTON  ALTA,1136.0,711530,99999
514,2602,13.367,47.85,MONDSEE,491.0,111530,99999
515,2603,-112.53299999999999,49.283,MILK RIVER RIDGE RESEVOIR,1305.0,710150,99999
516,2605,17.833,69.6,HEKKINGEN FYR,14.0,10150,99999
517,2607,100.98299999999999,51.683,MONDY,1304.0,308020,99999
518,2608,11.078,49.498999999999995,NURNBERG,318.8,107630,99999
519,2610,4.9319999999999995,51.567,GILZE RIJEN,14.9,63500,99999
520,2617,13.05,47.783,SALZBURG/FREISAAL,423.0,113500,99999
521,2626,-2.719,51.383,BRISTOL,189.6,37243,99999
522,2627,-1.382,54.206,TOPCLIFFE,28.0,32643,99999
523,2633,-3.167,54.617,KESWICK,81.0,32120,99999
524,2635,13.667,46.6,VILLACHERALPE,2160.0,112120,99999
525,2637,-71.133,47.317,FORET MONTMORENCY RCS  QUE,673.0,712120,99999
526,2638,4.15,52.917,HOORN-A HELIPAD OIL PLATFORM,41.0,62120,99999
527,2645,69.8,51.617,ZHALTYR,305.0,351730,99999
528,2646,24.683000000000003,51.217,KOVEL',174.0,331730,99999
529,2649,119.8,59.0,TYANYA,198.5,301730,99999
530,2650,21.066999999999997,65.667,ALVSBYN,43.0,21730,99999
531,2654,20.1,69.567,LYNGEN GJERDVASSBU,710.0,10350,99999
532,2663,93.23299999999999,52.8,OLEN' YA RECHKA,1398.5,299740,99999
533,2676,10.433,46.6,STA MARIA VAL MUESTAIR,1390.0,67960,99999
534,2685,38.516999999999996,52.633,ELEC,168.0,279280,99999
535,2703,125.883,48.05,KESHAN,237.0,506580,99999
536,2707,8.283999999999999,46.943999999999996,ALPNACH,445.0,66580,99999
537,2708,-1.0959999999999999,51.61600000000001,BENSON,68.9,36580,99999
538,2709,25.9,48.367,CHERNIVTSI,246.0,336580,99999
539,2716,25.3,46.3,ODORHEIUL SECUIESC,525.0,151680,99999
540,2720,108.01700000000001,61.266999999999996,ERBOGACEN,291.0,248170,99999
541,2731,33.25,49.05,SVITLOVODS'K,84.0,336140,99999
542,2734,-1.7830000000000001,52.65,NORTH DENES AIRPORT,2.0,34055,99999
543,2736,23.517,49.35,DROHOBYCH,276.0,333980,99999
544,2737,69.517,49.683,BARSHINO,349.0,353570,99999
545,2738,142.167,50.05,PIL'VO,4.0,320690,99999
546,2742,12.639000000000001,59.676,ARVIKA,72.2,24110,99999
547,2745,155.583,55.583,ICA,6.0,324110,99999
548,2748,22.95,54.133,SUWALKI,186.0,121950,99999
549,2751,-178.65,70.983,OSTROV VRANGELYA,4.0,219820,99999
550,2753,-114.15,50.7,BLACK DIAMOND,1156.0,719820,99999
551,2754,7.624,55.6,HORNS REV B HELIDECK,10.0,60170,99999
552,2758,-63.133,46.283,CHARLOTTETOWN,48.8,717060,99999
553,2759,-123.23,48.42,DISCOVERY ISLAND,15.0,710310,99999
554,2763,9.837,53.536,HAMBURG FINKENWERDER,6.7,101490,99999
555,2769,127.412,50.425,IGNATYEVO,194.5,313289,99999
556,2780,-130.9,69.6,LIVERPOOL BAY,102.0,719600,99999
557,2786,19.017,46.183,BAJA,113.0,129600,99999
558,2787,4.8,55.72,TYRA OST,43.0,60220,99999
559,2791,81.267,53.817,KAMEN'-NA-OBI,129.0,298220,99999
560,2792,-74.528,49.772,CHAPAIS,387.1,718220,99999
561,2796,17.683,47.717,GYOR,129.0,128220,99999
562,2806,-123.3,48.45,VICTORIA UNIVERSITY CS,60.0,717830,99999
563,2811,9.183,46.467,S BERNARDINO,1638.0,67830,99999
564,2814,58.217,57.35,SAMARY,244.0,283340,99999
565,2823,-19.617,65.7,BERGSTADIR,43.0,40530,99999
566,2837,86.21700000000001,55.25,KEMEROVO CGMS,148.0,296450,99999
567,2841,26.316999999999997,55.05,LYNTUPY,212.0,266450,99999
568,2842,7.882999999999999,47.433,RUENENBERG,610.0,66450,99999
569,2850,-119.333,76.233,MOULD BAY CS  NWT,2.0,719890,99999
570,2851,-128.65,66.233,FORT GOOD HOPE CS,82.0,714910,99999
571,2852,-119.43299999999999,49.033,OSOYOOS CS  BC,283.0,712150,99999
572,2853,-64.17,59.98,CAPE KAKKIVIAK,551.0,711760,99999
573,2854,-66.017,46.6,DOAKTOWN AUTO RCS,44.5,710380,99999
574,2860,129.483,63.516999999999996,BATAMAJ,79.0,246560,99999
575,2864,11.417,58.667,HUD,80.0,25070,99999
576,2870,-3.617,52.067,SENNYBRIDGE NO2,307.0,35070,99999
577,2871,-117.28299999999999,57.25,HAWK HILLS AGCM,455.0,715070,99999
578,2872,35.033,55.516999999999996,GAGARIN,194.0,275070,99999
579,2875,78.4,65.95,URENGOJ,23.7,234530,99999
580,2878,16.967,46.45,NAGYKANIZSA,141.0,129250,99999
581,2879,34.783,60.633,VINNICY,111.0,229250,99999
582,2880,-88.33,49.72,KATATOTA ISLAND,260.0,714680,99999
583,2881,12.0,60.183,KONGSVINGER,148.0,14680,99999
584,2884,127.45,50.25,AIHUI,166.0,504680,99999
585,2886,15.133,60.383,STORA SPANSBERGET,493.0,24680,99999
586,2891,16.033,49.733000000000004,SVRATOUCH,740.4,116830,99999
587,2892,-89.8,68.533,KUGAARUK CLIMATE,16.0,714070,99999
588,2894,8.305,47.092,EMMEN,426.7,66130,99999
589,2900,7.05,57.983000000000004,LINDESNES FYR,13.0,14360,99999
590,2901,-73.35,49.266999999999996,CHAMOUCHOUANE  QUE,304.0,715230,99999
591,2905,39.25,53.783,PAVELETS,209.0,278230,99999
592,2920,-120.51100000000001,49.468,PRINCETON,700.4,718864,99999
593,2923,-116.5,49.083,CRESTON CAMPBELL SCIENTIFIC,646.0,717700,99999
594,2924,140.3,49.0,SOVETSKAYA GAVAN,23.8,317700,99999
595,2927,8.911,46.004,LUGANO,278.9,67700,99999
596,2932,24.283,61.85,JUUPAJOKI HYYTIALA,153.0,27700,99999
597,2942,7.417000000000001,47.183,GRENCHEN,429.0,66320,99999
598,2947,134.63299999999998,49.933,KUR,283.0,316320,99999
599,2948,-101.06700000000001,56.85,LYNN LAKE RCS,354.0,716320,99999
600,2960,49.867,56.083,ARSK,157.0,275930,99999
601,2965,94.3,48.516999999999996,URGAMAL,1263.0,442190,99999
602,2976,66.333,51.883,ESIL',221.0,350670,99999
603,2977,18.95,57.917,FAROSUND-AR,13.0,25870,99999
604,2979,-107.15,50.95,LUCKY LAKE  SASK,665.0,714550,99999
605,2981,18.567,51.217,WIELUN,201.0,124550,99999
606,2986,113.617,55.467,UAKIT,1097.0,304550,99999
607,2987,4.6,50.1,DOURBES,233.0,64550,99999
608,3003,-63.467,45.417,DEBERT,38.0,713170,99999
609,3005,27.033,50.167,SHEPETIVKA,278.0,333170,99999
610,3008,22.533,45.283,TARCU,2186.0,153170,99999
611,3017,-110.867,53.333,VERMILLION AGDM  ALTA,623.0,712780,99999
612,3021,18.614,49.232,ZILINA,310.9,119276,99999
613,3025,6.267,52.433,HEINO AWS,5.0,62780,99999
614,3026,90.43299999999999,50.383,MUGUR-AKSY,1850.0,362780,99999
615,3028,-166.14700000000002,61.523999999999994,HOOPER BAY AIRPORT,5.5,702186,26651
616,3030,-160.341,61.536,KALSKAG AIRPORT,16.8,703052,26652
617,3034,-165.08700000000002,60.541000000000004,TOKSOOK BAY AIRPORT,18.0,703057,26653
618,3035,-161.319,61.775,RUSSIAN MISSION AIRPORT,15.5,703053,26654
619,3039,-162.921,68.028,RED DOG MINE 3 SSW,287.1,999999,26655
620,3048,20.05,49.467,NOWY TARG AIRPORT,628.0,126899,99999
621,3049,8.648,47.398999999999994,DUBENDORF,448.1,66099,99999
622,3057,-5.256,50.086000000000006,CULDROSE,81.4,38090,99999
623,3061,8.117,61.183,FILEFJELL,955.1,13640,99999
624,3063,24.233,68.0,KITTILA MATOROVA,340.0,28820,99999
625,3066,53.317,47.633,MAKAT,-22.0,356150,99999
626,3068,22.019000000000002,50.11,JASIONKA,205.7,125800,99999
627,3072,95.26700000000001,56.167,SOLYANKA,357.2,295800,99999
628,3073,-93.56700000000001,69.533,TALOYOAK A  NU,28.0,715800,99999
629,3078,-40.3,64.783,IKERMIIT,80.0,43730,99999
630,3081,36.417,45.4,KERCH,49.0,339830,99999
631,3086,132.183,46.317,BAOQING,83.0,508880,99999
632,3088,48.0,61.117,VILEGODSKOE,69.8,228890,99999
633,3090,-97.55,51.083,FISHER BRANCH (AUT)  MAN,253.0,714420,99999
634,3106,9.85,47.45,ALBERSCHWENDE,719.0,113010,99999
635,3110,123.9,53.467,DZALINDA,266.0,306950,99999
636,3113,125.23299999999999,49.167,NENJIANG,243.0,505570,99999
637,3116,-114.18299999999999,49.467,BEAVER MINES,1257.0,713040,99999
638,3117,35.233000000000004,49.85,KOLOMAK,180.0,343040,99999
639,3119,110.633,47.317,UNDERKHAAN,1033.0,443040,99999
640,3121,7.317,52.717,MEPPEN (MIL),26.0,103040,99999
641,3124,-89.26899999999999,45.931999999999995,EAGLE RIVER UNION AIRPORT,500.5,726504,54838
642,3125,4.683,61.567,YTTEROYANE FYR,25.0,13040,99999
643,3128,10.732999999999999,62.266999999999996,TYNSET-HANSMOEN,482.3,12650,99999
644,3129,-1.383,54.2,TOPCLIFFE,28.0,32650,99999
645,3130,91.46700000000001,46.117,BAITAG,1186.0,442650,99999
646,3135,18.55,63.65,HEMLING,183.0,22650,99999
647,3141,-23.25,66.167,BOLUNGARVIK,27.0,41270,99999
648,3142,35.033,68.0,LOVOZERO,162.0,221270,99999
649,3148,105.73299999999999,58.233000000000004,TOKMA,438.8,301270,99999
650,3150,29.85,70.067,VADSO,39.0,10880,99999
651,3151,-79.07,69.07,ROWLEY ISLAND,41.0,710880,99999
652,3152,26.616999999999997,51.283,SARNY,156.0,330880,99999
653,3153,143.2,59.367,OHOTSK,6.0,310880,99999
654,3156,10.267999999999999,45.431999999999995,GHEDI,101.5,160880,99999
655,3157,-111.73299999999999,53.183,VIKING AGCM,711.0,718880,99999
656,3162,75.45,53.35,ERTIS,94.0,298070,99999
657,3163,91.583,54.2,LEBYAZH'E,252.8,297680,99999
658,3167,30.05,63.317,LIEKSA LAMPELA,98.0,27960,99999
659,3180,141.683,45.417,WAKKANAI,11.7,474010,99999
660,3184,8.2,46.85,GISWIL,475.0,66570,99999
661,3187,11.783,46.3,ROLLE PASS,2006.0,160210,99999
662,3192,-110.43299999999999,58.967,EGG ISLAND  ALTA,215.0,714040,99999
663,3193,-0.433,53.867,LECONFIELD (AUT),6.0,33840,99999
664,3196,22.15,46.016999999999996,VARADIA DE MURES,157.0,152040,99999
665,3197,12.817,46.833,LIENZ,666.0,112040,99999
666,3198,-4.624,54.083,ISLE OF MAN,16.8,32040,99999
667,3199,24.267,45.65,BOITA,519.0,152770,99999
668,3202,-116.45,53.567,EDSON,926.0,711670,99999
669,3208,0.45,51.883,ANDREWSFIELD,87.0,36840,99999
670,3220,106.45,50.367,KJAHTA,797.0,309250,99999
671,3221,46.2,65.767,MOSEEVO,42.2,224810,99999
672,3222,12.714,58.426,SATENAS,55.2,25200,99999
673,3224,16.683,59.917,SALA,58.0,24810,99999
674,3228,-128.82299999999998,60.11600000000001,WATSON LAKE,687.3,719530,99999
675,3229,-117.3,49.483000000000004,NELSON  BC,534.9,717760,99999
676,3230,-123.7,49.45,SECHELT,86.0,716380,99999
677,3234,12.7,47.583,LOFER,629.0,111400,99999
678,3235,-99.95,49.917,BRANDON MUNI,409.3,711400,99999
679,3238,16.25,80.05,VERLEGENHUKEN,8.0,10020,99999
680,3265,114.01700000000001,57.817,MAMAKAN,249.0,302520,99999
681,3266,3.217,53.217,K13-A,30.0,62520,99999
682,3267,159.167,58.5,UST'-VOYAMPOLKA,7.0,322520,99999
683,3274,23.05,63.117,KAUHAVA KK UUNIMAANTIE,40.0,29140,99999
684,3279,56.516999999999996,60.4,CHERDYN',207.0,239140,99999
685,3281,-123.117,48.766999999999996,SATURNA / CAPMON CS,178.0,719140,99999
686,3309,24.166999999999998,63.817,TOHOLAMPI LAITALA,84.5,27370,99999
687,3316,-74.1,46.817,SAINT-MICHEL-DES-SAINTS,430.0,717370,99999
688,3328,16.083,48.883,KUCHAROVICE,338.7,116980,99999
689,3331,99.03299999999999,54.883,NIZNE-UDINSK,410.0,296980,99999
690,3333,82.367,48.75,KOKPEKTY,512.0,365350,99999
691,3338,76.75,55.3,CHANY,111.0,296020,99999
692,3340,14.95,66.5,HJARTASEN,251.0,11500,99999
693,3350,28.6,49.233000000000004,VINNYTSIA,298.0,335620,99999
694,3358,-150.65,66.817,PROSPECT CREEK AIRPORT,335.0,701748,99999
695,3359,20.337,67.822,KIRUNA,459.6,20440,99999
696,3362,-121.62700000000001,55.687,CHETWYND,609.6,710348,99999
697,3367,-82.46799999999999,49.413999999999994,KAPUSKASING,226.5,718310,99999
698,3370,-131.65,54.15,ROSE SPIT (AUT)  BC,7.0,714770,99999
699,3371,-112.167,52.117,HALKIRK AGCM,843.0,717920,99999
700,3375,111.96700000000001,49.567,KYRA,908.0,309490,99999
701,3379,122.53299999999999,52.967,MOHE,438.0,501360,99999
702,3380,8.658999999999999,53.768,NORDHOLZ,22.6,101360,99999
703,3382,16.183,47.516999999999996,KRUMBACH ID BUCKLIGEN WELT,545.0,113860,99999
704,3397,-24.517,65.5,BJARGTANGAR,36.0,41010,99999
705,3404,-115.117,53.15,VIOLET GROVE CS  ALTA,903.0,710620,99999
706,3405,137.667,59.766999999999996,YUGORENOK,383.7,310620,99999
707,3407,82.417,61.533,KORLIKI,71.0,238620,99999
708,3408,-1.8430000000000002,50.78,BOURNEMOUTH,11.6,38620,99999
709,3410,-3.967,57.817,TAIN RANGE (SAWS),4.0,30620,99999
710,3411,175.767,69.883,MYS BILLINGSA,3.0,250620,99999
711,3412,25.066999999999997,76.5,HOPEN ISLAND,10.0,10620,99999
712,3415,91.617,55.383,BALAHTA,321.0,296620,99999
713,3417,77.217,57.8,MAJSK,99.0,292090,99999
714,3419,80.033,55.85,KRESCHENKA,129.0,295240,99999
715,3420,96.05,56.683,ABAN,244.5,294850,99999
716,3426,55.383,57.717,OHANSK,163.0,283210,99999
717,3430,60.783,58.867,VERHOTUR'E,125.0,281440,99999
718,3432,60.867,62.433,NJAKSIMVOL',51.0,237240,99999
719,3433,80.467,54.333,KOCHKI,160.0,297240,99999
720,3434,-72.5,46.35,TROIS RIVIERES  QUE,6.0,717240,99999
721,3438,112.48299999999999,63.033,CHERNISHEVSKIJ,422.0,247240,99999
722,3440,7.4670000000000005,46.3,MONTANA,1508.0,67240,99999
723,3446,163.233,57.65,OZERNOY (MYS),9.1,323330,99999
724,3447,13.15,47.333,ST VEIT IM PONGAU,749.2,113450,99999
725,3453,9.067,47.033,GLARUS,517.5,66850,99999
726,3454,11.855,50.288999999999994,HOF PLAUEN,597.4,106850,99999
727,3475,124.833,63.95,HATYAYK-HOMO,76.5,246430,99999
728,3483,-119.333,56.067,SAVANNA AGCM,703.0,715470,99999
729,3486,37.415,55.973,SHEREMETYEVO,189.6,275155,99999
730,3491,-4.535,53.248000000000005,VALLEY,11.3,33020,99999
731,3494,32.983000000000004,60.983000000000004,OLONEC,12.0,229120,99999
732,3495,23.55,62.333,VIRRAT AIJANNEVA,139.5,27350,99999
733,3496,16.317,58.683,KOLMARDEN-STROMSFORS,155.0,25580,99999
734,3498,2.041,49.097,CORMEILLES EN VEXIN,99.1,74765,99999
735,3499,5.4,50.033,SAINT HUBERT,557.0,64765,99999
736,3501,31.8,68.6,PADUN,63.0,221060,99999
737,3505,15.883,47.867,GUTENSTEIN-MARIAHILFBERG,709.0,113780,99999
738,3506,-3.583,52.9,BALA,163.0,34090,99999
739,3508,-111.05,49.55,ETZICOM AGCM,845.0,714090,99999
740,3510,14.333,47.733000000000004,WINDISCHGARSTEN,614.0,113550,99999
741,3511,7.5,61.1,LAERDAL IV,5.0,13550,99999
742,3514,-53.117,48.667,BONAVISTA RCS,26.0,711780,99999
743,3515,24.95,49.433,BEREZHANY,304.0,334090,99999
744,3517,116.51700000000001,50.4,BORZYA,676.0,309650,99999
745,3527,-121.23299999999999,61.75,FORT SIMPSON CLIMATE  NWT,168.0,713650,99999
746,3530,66.35,56.683,JALTUROVOSK,61.0,284650,99999
747,3531,-2.55,55.05,SPADEADAM,325.0,31650,99999
748,3532,14.744000000000002,47.203,ZELTWEG,676.7,111650,99999
749,3533,24.233,46.367,TARNAVENI,524.0,151650,99999
750,3535,43.3,68.65,KANIN NOS,49.0,221650,99999
751,3556,-119.304,46.306000000000004,RICHLAND AIRPORT,120.1,727884,99999
752,3561,32.2,48.516999999999996,KIROVOHRAD,171.0,337110,99999
753,3563,56.2,62.7,TROICKO-PECHERSKOE,139.0,237110,99999
754,3566,119.867,73.0,UST' OLENEK,14.9,217110,99999
755,3581,16.288,56.68600000000001,KALMAR,5.2,26720,99999
756,3583,8.633,46.867,ALTDORF,451.0,66720,99999
757,3597,-124.059,69.361,PAULATUK,5.5,719485,99999
758,3607,-123.023,48.522,FRIDAY HARBOR AIRPORT,33.2,727985,94276
759,3608,-1.296,59.879,SUMBURGH,6.1,30030,99999
760,3612,33.266999999999996,49.617,VESELYI PODIL,96.0,334950,99999
761,3616,10.833,59.15,STROMTANGEN FYR,10.0,14950,99999
762,3617,-114.083,51.367,NEIR AGDM,1145.0,714950,99999
763,3622,-0.35100000000000003,53.574,HUMBERSIDE,36.9,33735,99999
764,3623,-123.33,48.42,VICTORIA HARBOUR,5.0,714735,99999
765,3624,-92.6,62.233000000000004,WHALE COVE AIRPORT,20.0,710735,99999
766,3632,113.96700000000001,70.133,DZALINDA,62.0,219080,99999
767,3633,-73.417,45.516999999999996,MONTREAL/ST HUBERT,27.4,713710,99999
768,3635,-114.43299999999999,53.083,BRETON PLOTS  ALTA,852.0,712330,99999
769,3639,-111.117,58.766999999999996,FORT CHIPEWYAN RCS,238.0,710560,99999
770,3643,8.517000000000001,60.867,HOLLEKOLTEN,804.2,13570,99999
771,3644,-64.03,67.55,QIKIQTARJUAQ CLIMATE,6.0,713570,99999
772,3648,42.75,49.567,SERAFIMOVIC,200.0,343570,99999
773,3666,14.217,64.5,GADDEDE A,550.0,22190,99999
774,3668,108.53299999999999,67.133,YAROL'IN,235.8,242190,99999
775,3669,14.633,45.6,PARG,863.0,142190,99999
776,3670,59.4,67.033,HOSEDA-HARD,83.0,232190,99999
777,3671,27.166999999999998,46.1,ADJUD,102.0,152190,99999
778,3675,-130.35,54.167,HOLLAND ROCK  BC,5.0,712190,99999
779,3702,2.333,48.817,PARIS-MONTSOURIS,77.0,71560,99999
780,3714,93.01700000000001,52.25,NIZHNE-USINSKOE,662.1,360910,99999
781,3719,177.74099999999999,64.735,UGOLNY,59.1,255630,99999
782,3727,-53.567,49.1,POOLS ISLAND,19.0,719310,99999
783,3729,-81.733,45.333,COVE ISLAND (AUT)  ONT,181.0,714390,99999
784,3731,-123.184,49.193999999999996,VANCOUVER INTL,4.3,718920,99999
785,3732,-108.25,52.77,NORTH BATTLEFORD RCS,548.0,717540,99999
786,3733,-72.05,46.3,LEMIEUX  QUE,97.0,716160,99999
787,3735,-37.633,65.6,TASIILAQ,52.0,43600,99999
788,3743,-70.517,50.65,MANOUANE EST  QUE,497.0,715210,99999
789,3744,129.333,50.783,BRATOLJUBOVKA,227.0,315210,99999
790,3747,105.167,54.8,ZHIGALOVO,418.0,305210,99999
791,3748,12.417,58.6,BERGARUD,55.0,25210,99999
792,3751,-8.982999999999999,53.717,CLAREMORRIS,69.0,39700,99999
793,3755,143.767,50.4,POGRANICHNOE,8.0,320760,99999
794,3760,0.551,52.648,MARHAM,22.9,34820,99999
795,3761,5.327999999999999,45.986999999999995,AMBERIEU,250.9,74820,99999
796,3762,10.517000000000001,59.033,FERDER LH,7.7,14820,99999
797,3764,-127.46700000000001,52.183,CATHEDRAL POINT (AUT)  BC,31.0,714820,99999
798,3766,13.667,46.6,VILLACHER ALPE AUTOM,2160.0,112650,99999
799,3767,11.033,46.867,OBERGURGL,1937.0,111270,99999
800,3768,14.9,59.3,KILSBERGEN-SUTTARBODA,219.0,24520,99999
801,3769,9.732999999999999,47.1,BRAND,1029.0,113040,99999
802,3771,143.1,49.217,PORONAJSK,8.0,320980,99999
803,3773,-94.969,74.717,RESOLUTE BAY,65.5,719240,99999
804,3774,-113.51700000000001,49.333,GLENWOOD,1074.0,718850,99999
805,3775,-89.31700000000001,48.367,THUNDER BAY,199.0,710720,99999
806,3789,41.15,49.8,KAZANSKAJA,72.0,343440,99999
807,3792,-1.867,53.817,BINGLEY NO.2,267.0,33440,99999
808,3799,22.726,46.167,TEBEA,264.0,152060,99999
809,3800,-126.596,52.388000000000005,BELLA COOLA,35.7,712060,99999
810,3801,153.717,67.45,CREDNEKOLYMSK,21.0,252060,99999
811,3808,27.183000000000003,60.283,KOTKA HAAPASAARI,5.5,29670,99999
812,3811,-6.4510000000000005,53.302,CASEMENT,97.2,39670,99999
813,3813,-72.533,45.817,SAINT GERMAIN DE GRANTHAM,85.0,719670,99999
814,3817,72.517,70.167,SEYAHA,17.8,209670,99999
815,3818,-94.806,46.381,STAPLES MUNICIPAL AIRPORT,392.3,727514,54910
816,3822,-90.402,45.708999999999996,PRICE COUNTY AIRPORT,456.3,726468,54913
817,3823,-92.69,45.308,L.O. SIMENSTAD MUNICIPAL AIRP,275.2,726418,54912
818,3826,24.8,60.6,HYVINKAA HYVINKAANKYLA,87.5,28290,99999
819,3836,5.341,59.792,SORSTOKKEN,48.8,10014,99999
820,3837,-93.60799999999999,45.56,PRINCETON MUNICIPAL AIRPORT,298.4,726682,54914
821,3838,-94.382,46.725,PINE RIVER REGIONAL AIRPORT,394.7,727508,54915
822,3851,92.1,55.35,SHCHETINKINO,804.3,297710,99999
823,3853,8.85,46.7,DISENTIS-SEDRUN,1180.0,67820,99999
824,3868,27.2,45.7,FOCSANI,59.0,152640,99999
825,3870,-73.733,45.467,MONTREAL/PIERRE ELLIOTT TRUDE,32.0,711830,99999
826,3874,-99.26700000000001,53.183,GRAND RAPIDS (AUT),223.0,718580,99999
827,3876,-130.033,58.433,DEASE LAKE (AUT),802.0,712220,99999
828,3877,-132.733,60.167,TESLIN (AUT)  YT,705.0,710450,99999
829,3883,-96.60700000000001,46.244,HARRY STERN AIRPORT,295.1,722004,54922
830,3897,22.55,60.383,KAARINA YLTOINEN,5.2,28280,99999
831,3906,10.022,52.591,CELLE,39.3,103430,99999
832,3913,-91.001,45.497,RUSK COUNTY AIRPORT,377.3,723758,54928
833,3914,-118.885,55.18,GRANDE PRAIRIE,669.0,719400,99999
834,3916,114.083,71.967,SASKYLAH,18.0,218020,99999
835,3919,13.275,49.675,PLZEN LINE,362.1,114480,99999
836,3921,14.25,78.067,BARENTSBURG,75.0,201070,99999
837,3922,-102.35,55.533,ISLAND FALLS (AUT)  SASK,297.0,713310,99999
838,3923,15.083,62.75,HUNGE,343.0,23310,99999
839,3928,14.317,46.633,KLAGENFURT-FLUGHAFEFN,450.0,113310,99999
840,3933,0.055,51.505,CITY,5.8,37683,99999
841,3938,-102.46700000000001,51.266999999999996,YORKTON,498.0,712920,99999
842,3939,22.253,45.42,CARANSEBES,264.0,152920,99999
843,3940,-0.16699999999999998,54.1,BRIDLINGTON MRSC,19.0,32920,99999
844,3941,15.583,47.067,LASSNITZHOEHE,533.0,112920,99999
845,3942,21.283,64.433,HOKMARKSBERGET,105.0,22920,99999
846,3944,106.76700000000001,47.843,CHINGGIS KHAAN INTL,1330.1,442920,99999
847,3945,48.683,67.683,INDIGA,4.0,222920,99999
848,3946,104.3,77.717,GMO IM.E.K. FEDOROVA,15.0,202920,99999
849,3947,-49.7,61.983000000000004,FREDICKSHAB/PAAMIUT AIRPORT,13.0,42605,99999
850,3950,20.15,65.875,VIDSEL,182.0,21540,99999
851,3951,11.867,55.2,BRANDELEV,46.0,61540,99999
852,3952,13.8,47.9,GMUNDEN,428.0,111540,99999
853,3955,-113.81700000000001,49.133,WATERTON PARK GATE,1289.0,711540,99999
854,3956,27.717,46.65,VASLUI,117.0,151540,99999
855,3967,-113.55,49.15,BULLHORN HEADWATERS,1326.0,710160,99999
856,3973,7.867000000000001,55.5,HORNS REV A,21.0,60160,99999
857,3974,28.9,78.933,KONGSOYA,20.0,10160,99999
858,3975,128.5,58.633,UGINO,230.6,310160,99999
859,3982,31.333000000000002,47.567,VOZNESENS'K,34.0,337770,99999
860,3983,117.7,52.233000000000004,SRETENSK,525.0,307770,99999
861,3987,9.017000000000001,45.933,MONTE GENEROSO,1601.2,67770,99999
862,3992,69.283,59.6,DEM'JANSKOE,57.0,280760,99999
863,4002,12.35,56.117,NAKKEHOVED,43.0,61680,99999
864,4008,118.333,63.283,NJURBA,119.0,246390,99999
865,4009,7.933,47.0,NAPF,1406.0,66390,99999
866,4011,81.617,47.117,URZHAR,491.0,366390,99999
867,4017,1.65,57.283,MARNOCK OIL PLATFORM,470.0,31407,99999
868,4031,54.35,60.283,GAJNY,198.0,239090,99999
869,4037,22.95,59.766999999999996,HANKO RUSSARO,6.5,29820,99999
870,4042,23.967,66.767,PELLO CENTRE,85.9,28440,99999
871,4043,15.583,56.15,KARLSKRONA-SODERSTJERNA,8.0,26670,99999
872,4044,19.833,68.067,RENSJON,493.0,20310,99999
873,4046,29.239,65.988,KUUSAMO,264.0,28690,99999
874,4047,10.683,60.05,BJORNHOLT,360.0,14890,99999
875,4049,8.517000000000001,58.333,LANDVIK,6.0,14640,99999
876,4051,11.817,62.683,SOLENDET,747.0,12870,99999
877,4053,-89.806,45.468999999999994,TOMAHAWK REGIONAL AIRPORT,452.9,722332,54953
878,4060,13.617,68.15,LEKNES,26.0,11410,99999
879,4063,26.0,53.117,BARANOVICHI,193.0,269410,99999
880,4070,20.651999999999997,52.451,MODLIN,103.9,121056,99999
881,4075,1.6269999999999998,50.515,LE TOUQUET PARIS PLAGE,11.0,70030,99999
882,4077,25.083000000000002,64.683,SIIKAJOKI REVONLAHTI,49.5,28030,99999
883,4089,115.167,52.65,USUGLI,646.0,307640,99999
884,4094,24.217,68.0,KITTILA LOMPOLONVUOMA,270.0,27640,99999
885,4099,33.1,69.733,TSYP-NAVOLOK,11.0,220120,99999
886,4100,27.416999999999998,45.85,TECUCI,61.0,152650,99999
887,4101,25.517,46.7,JOSENI,751.0,151270,99999
888,4104,33.766999999999996,52.583,TRUBCHEVSK,178.0,269970,99999
889,4111,27.383000000000003,59.333,JOHVI,75.0,260460,99999
890,4120,7.983,47.367,GOESGEN,380.0,66260,99999
891,4129,26.65,47.733000000000004,BOTOSANI,163.0,150200,99999
892,4131,-93.35,53.067,SANDY LAKE A,289.9,715870,99999
893,4132,128.65,49.617,POJARKOVO,115.0,315870,99999
894,4133,95.46700000000001,55.633,IRBEJSKOE,252.0,295870,99999
895,4136,30.233,48.766999999999996,UMAN',216.0,335870,99999
896,4147,-1.004,53.475,DONCASTER SHEFFIELD,16.8,34054,99999
897,4148,57.983000000000004,68.8,VARANDEY,6.6,231120,99999
898,4155,-51.75,64.167,NUUK (GODTHAAB),84.0,42500,99999
899,4156,18.583,53.05,TORUN,72.0,122500,99999
900,4158,8.183,59.833,MOSSTRAND II,977.0,14500,99999
901,4163,4.454,50.458999999999996,BRUSSELS SOUTH,187.1,64490,99999
902,4168,16.45,59.383,ESKILSTUNA A,15.0,24490,99999
903,4169,127.117,65.3,BESTYAHSKAYA ZVEROFERMA,73.3,244490,99999
904,4170,9.033,58.867,GJERSTAD,32.0,14490,99999
905,4171,170.933,70.083,VAL' KARKAY,5.8,219780,99999
906,4173,18.9,69.65,TROMSO-HOLT,20.0,10270,99999
907,4174,16.2,48.4,STOCKERAU,205.1,110270,99999
908,4175,-60.4,46.667,INGONISH BEACH CS,8.0,710270,99999
909,4177,-126.75,65.28,NORMAN WELLS CLIMATE,94.0,714800,99999
910,4178,10.133,59.75,DRAMMEN BERSKOG,8.0,14800,99999
911,4179,-107.01700000000001,49.1,MANKOTA,830.0,712040,99999
912,4189,14.4,62.05,SVEG A,362.0,23270,99999
913,4207,-69.95,58.667,TASIUJAQ A,31.0,719064,99999
914,4216,61.3,55.15,CHELYABINSK-GOROD,237.0,286450,99999
915,4219,8.517000000000001,46.45,ROBIEI,1891.0,67510,99999
916,4220,21.383000000000003,61.633,PORI TAHKOLUOTO HARBOUR,4.6,27510,99999
917,4222,-89.117,48.367,WELCOME ISLAND (AUT),211.0,717510,99999
918,4230,-133.376,62.208,FARO,716.6,719493,99999
919,4255,7.063,50.174,BUCHEL,477.9,106130,99999
920,4261,130.0,60.467,TEGYULTYA,171.0,249670,99999
921,4264,16.15,58.583,NORRKOPING,41.6,25740,99999
922,4270,-94.76700000000001,49.467,ROYAL ISLAND (AUT),329.0,717366,99999
923,4271,-109.73299999999999,46.7,LIMA (JUDITH GAP),1414.3,721006,99999
924,4276,53.683,61.683,UST'-KULOM,144.0,238030,99999
925,4277,-6.3,49.917,SCILLY/SAINT MARY'S,31.0,38030,99999
926,4283,15.433,58.65,KVARN,10.0,25610,99999
927,4294,25.916999999999998,56.516999999999996,ZILANI,109.0,264360,99999
928,4298,9.378,51.408,KASSEL CALDEN,276.8,104360,99999
929,4301,7.767,62.45,MANNEN,1294.0,12200,99999
930,4302,16.417,49.983000000000004,USTI NAD ORLICI,404.9,116790,99999
931,4306,12.267000000000001,61.3,TRYSIL VEGSTASJON,361.4,13970,99999
932,4311,9.685,52.461000000000006,HANNOVER,55.8,103380,99999
933,4315,81.217,49.217,ZHANGIZTOBE,455.0,363970,99999
934,4319,13.168,51.768,HOLZDORF,80.8,104760,99999
935,4321,114.55,48.083,CHOIBALSAN,747.0,442590,99999
936,4322,17.769000000000002,63.049,KRAMFORS SOLLEFTEA,10.4,22590,99999
937,4328,-111.7,51.117,POLLOCKVILLE AGDM  ALTA,750.0,712590,99999
938,4329,10.45,64.4,BUHOLMRASA LH,18.4,12590,99999
939,4347,90.367,53.717,UYBAT,525.0,298640,99999
940,4355,1.8319999999999999,50.143,ABBEVILLE,67.1,70050,99999
941,4364,19.0,49.8,BIELSKO-BIALA,399.0,126000,99999
942,4367,21.467,55.35,SILUTE,5.0,266000,99999
943,4370,58.667,50.717,STEPNOE,243.0,352350,99999
944,4371,41.967,46.067,GORODOVIKOVSK,86.0,348450,99999
945,4373,174.417,64.867,TANYURER,8.0,255610,99999
946,4380,137.033,50.533,KOMSOMOLSK-NA-AMURE,22.0,315610,99999
947,4381,90.31700000000001,56.033,NAZAROVO,255.9,295610,99999
948,4391,16.35,54.4,DARLOWEK,5.0,121240,99999
949,4395,13.117,59.867,SUNNE,109.0,24230,99999
950,4397,12.683,49.667,PRIMDA,747.4,114230,99999
951,4398,-61.7,49.083,HEATH POINT  QUE,7.0,714230,99999
952,4402,-120.76700000000001,50.1,MERRITT,591.0,715570,99999
953,4411,11.1,60.193999999999996,GARDERMOEN,207.6,13840,99999
954,4412,-70.767,47.067,CAP TOURMENTE  QUE,6.0,713840,99999
955,4413,15.833,47.617,HIRSCHENKOGEL,1319.0,113840,99999
956,4423,-115.26700000000001,56.533,RED EARTH  ALTA,546.0,712460,99999
957,4425,31.9,51.05,NIZHYN,126.0,332460,99999
958,4430,-2.883,53.745,WARTON,16.8,32145,99999
959,4437,11.85,65.7,VEGA-VALLSJO,9.1,11080,99999
960,4441,25.95,46.983000000000004,CEAHLAU TOACA,1898.0,151080,99999
961,4442,51.543,51.151,URALSK,38.1,351080,99999
962,4443,-122.363,49.025,ABBOTSFORD,59.4,711080,99999
963,4444,-114.777,55.293,SLAVE LAKE,583.4,710690,99999
964,4447,25.133000000000003,47.317,POIANA STAMPEI,920.0,150690,99999
965,4449,92.417,53.3,ERMAKOVSKOE,298.0,298690,99999
966,4451,-105.67299999999999,53.214,PRINCE ALBERT GLASS FIELD,428.2,718690,99999
967,4453,11.949000000000002,48.321999999999996,ERDING,461.8,108690,99999
968,4464,23.566999999999997,46.067,ALBA IULIA,247.0,152080,99999
969,4465,102.78299999999999,46.266999999999996,ARVAIHEER,1813.0,442880,99999
970,4468,141.88299999999998,64.05,YURTY,589.7,245880,99999
971,4469,-111.73299999999999,49.867,GRASSY LAKE,783.0,717880,99999
972,4470,-64.479,48.775,GASPE,32.9,711880,99999
973,4472,7.4670000000000005,46.983000000000004,BERN-ZOLLIKOFEN,567.0,66310,99999
974,4496,-3.35,55.933,EDINBURGH GOGARBANK,57.0,31660,99999
975,4498,17.283,47.883,MOSONMAGYAROVAR,122.0,128150,99999
976,4500,94.883,55.25,AGINSKOE,337.0,296760,99999
977,4505,23.05,47.183,ZALAU,294.0,150630,99999
978,4508,-3.467,52.75,LAKE VYRNWY NO2,359.0,34100,99999
979,4514,-97.833,53.967,NORWAY HOUSE ARPT,223.0,714100,99999
980,4519,9.067,61.117,LOKEN I VOLBU,521.0,13710,99999
981,4524,126.0,52.783,CHERNJAEVO,210.0,313710,99999
982,4531,9.117,62.083,DOMBAAS,638.0,12330,99999
983,4536,25.6,58.367,VILJANDI,86.0,262330,99999
984,4537,15.383,64.967,SAXNAS,545.0,22330,99999
985,4570,10.860999999999999,48.18600000000001,LECHFELD,555.3,108560,99999
986,4571,18.45,48.283,MOCHOVCE,262.0,118560,99999
987,4579,-68.217,48.6,MONT JOLI A,52.4,717180,99999
988,4590,-125.98,53.77,OOTSA LAKESKINS LAKE,861.0,716790,99999
989,4611,-117.333,64.117,REA LAKES,223.3,711650,99999
990,4613,35.316,47.867,ZAPORIZHZHIA INTL,113.7,346010,99999
991,4628,36.583,61.8,PUDOZ,44.0,228310,99999
992,4629,27.781,47.838,BALTI INTL,231.0,338388,99999
993,4632,32.35,67.15,KANDALAKSHA,25.0,222170,99999
994,4633,13.667,55.467,RYNGE,50.0,26090,99999
995,4634,9.217,60.983000000000004,FAGERNES,365.4,13670,99999
996,4635,-99.95,49.9,BRANDON RCS,409.4,711360,99999
997,4638,-52.85,68.7,AASIAAT (EGEDESMINDE),41.0,42200,99999
998,4641,-130.609,54.29600000000001,LUCY ISLAND LIGHTSTATION,22.6,712200,99999
999,4642,14.417,47.067,NEUMARKT,870.0,112200,99999
1000,4643,-2.967,54.933,CARLISLE,27.0,32200,99999
1001,4648,21.366999999999997,59.783,PARAINEN UTO,6.8,29810,99999
1002,4649,46.25,60.766999999999996,VELIKIJ USTJUG,99.0,229810,99999
1003,4655,-55.317,47.133,WINTERLAND  NFLD,29.0,711810,99999
1004,4656,5.955,48.583,OCHEY,337.1,71810,99999
1005,4658,124.55,61.917,TONGULAH,199.1,248430,99999
1006,4663,22.816999999999997,70.417,ROGNSUNDET,10.0,10430,99999
1007,4674,27.217,67.017,PELKOSENNIEMI PYHATUNTURI,487.5,27050,99999
1008,4676,6.233,46.4,NYON-CHANGINS,432.0,67050,99999
1009,4678,51.1,54.417,CELNO-VERSINY,158.0,287050,99999
1010,4689,30.35,55.126999999999995,VITEBSK,207.9,266660,99999
1011,4690,8.183,47.6,LEIBSTADT,341.0,66660,99999
1012,4692,67.3,55.25,MAKUSINO,140.0,286660,99999
1013,4693,4.433,52.167,VALKENBURG,1.0,62100,99999
1014,4701,21.133000000000003,45.383,BANLOC,83.0,152890,99999
1015,4709,-3.4139999999999997,50.733999999999995,EXETER,31.1,38390,99999
1016,4710,5.872999999999999,52.06100000000001,DEELEN,48.2,62750,99999
1017,4724,88.68299999999999,50.016999999999996,KOSH-AGACH,1759.0,362590,99999
1018,4728,18.117,59.067,BERGA,3.0,24890,99999
1019,4729,21.767,49.7,KROSNO,329.0,126700,99999
1020,4731,19.417,59.75,SODERARM,15.0,24930,99999
1021,4732,17.533,61.7,KUGGOREN,10.0,23550,99999
1022,4735,13.167,63.367,ARE,435.0,22170,99999
1023,4742,-135.868,63.61600000000001,MAYO,503.8,719650,99999
1024,4744,-77.704,53.625,LA GRANDE RIVIERE,194.8,718270,99999
1025,4746,13.1,47.983000000000004,MATTSEE,503.0,111520,99999
1026,4747,-57.617,47.617,BURGEO NL,11.0,711520,99999
1027,4748,136.15,57.65,NEL' KAN,318.0,311520,99999
1028,4750,-113.18299999999999,52.183,DELBURNE AGCM,889.0,710140,99999
1029,4753,11.583,64.467,NAMSOS AIRPORT,2.0,12900,99999
1030,4754,14.365,67.26899999999999,BODO,12.8,11520,99999
1031,4762,64.217,60.317,SAIM,53.0,239290,99999
1032,4780,26.816999999999997,60.7,KOUVOLA ANJALA,33.0,28300,99999
1033,4784,-21.941,64.13,REYKJAVIK,14.6,40300,99999
1034,4792,-110.617,53.067,GILT EDGE NORTH AGCM,647.0,717910,99999
1035,4793,33.217,48.033,KRYVYI RIH,124.0,337910,99999
1036,4794,29.233,63.233000000000004,JUUKA NIEMELA,115.0,27910,99999
1037,4800,9.817,46.417,PIZ CORVATSCH,3299.0,67910,99999
1038,4801,72.433,54.633,SERBAKUL',115.0,287910,99999
1039,4811,43.383,58.35,NIKOLO-POLOMA,150.0,272520,99999
1040,4813,4.647,49.784,CHARLEVILLE MEZIERES,149.0,70750,99999
1041,4821,43.783,55.367,ARZAMAS,127.0,276530,99999
1042,4823,28.767,55.467,POLOTSK,133.0,266530,99999
1043,4825,89.81700000000001,55.3,UZUR,387.0,296530,99999
1044,4832,-81.817,69.367,IGLOOLIK AIRPORT,51.0,710814,99999
1045,4844,17.983,53.1,SZWEDEROWO,235.0,123767,99999
1046,4854,-103.65,50.55,INDIAN HEAD CDA  SASK,579.0,715150,99999
1047,4871,46.85,49.133,EL'TON,6.0,344760,99999
1048,4873,88.9,75.417,MYS STERLEGOVA,11.0,204760,99999
1049,4876,16.4,59.05,FLODA,33.0,24760,99999
1050,4882,-114.0,50.5,AZURE,1143.0,719810,99999
1051,4886,-64.679,46.111999999999995,GREATER MONCTON INTL,70.7,717050,99999
1052,4889,-64.77,46.42,BUCTOUCHE CDA CS,36.0,716660,99999
1053,4892,16.112000000000002,48.321000000000005,TULLN,175.3,110300,99999
1054,4894,18.133,69.283,KISTEFJELL,982.0,10300,99999
1055,4895,9.967,53.55,HAMBURG-STADT,22.0,101480,99999
1056,4896,-64.017,67.533,QIKIQTARJUAQ A  NU,6.0,713380,99999
1057,4900,117.4,66.033,EJK,304.3,243380,99999
1058,4913,7.53,47.59,BALE MULHOUSE,269.7,72990,99999
1059,4914,-82.43299999999999,49.4,KAPUSKASING CDA ON  ONT,218.0,712990,99999
1060,4915,25.733,50.133,KREMENETS,259.0,332990,99999
1061,4921,-91.833,47.817,ELY MUNICIPAL AIRPORT,443.8,727459,94964
1062,4923,39.233000000000004,63.117,TURCASOVO,34.0,226480,99999
1063,4924,26.69,58.306999999999995,TARTU,66.8,262420,99999
1064,4931,-109.417,47.45,ECHO (WINIFRED),1116.5,720998,99999
1065,4938,-86.225,66.521,REPULSE BAY,24.4,710944,99999
1066,4956,-1.735,48.07,ST JACQUES,37.8,71300,99999
1067,4979,-145.5,63.03,GLENNALLEN 64 N,813.5,999999,56401
1068,4989,-116.46700000000001,53.583,EDSON CLIMATE,927.0,711560,99999
1069,4990,-94.98299999999999,74.717,RESOLUTE CS,30.0,710180,99999
1070,4995,-4.567,52.133,ABERPORTH,134.0,35020,99999
1071,4998,6.6579999999999995,50.831,NORVENICH,117.7,105020,99999
1072,4999,21.094,55.973,PALANGA INTL,10.1,265020,99999
1073,5002,51.033,56.233000000000004,VJATSKIE POLJANY,83.0,285020,99999
1074,5004,14.033,50.683,USTI NAD LABEM,378.6,115020,99999
1075,5009,24.217,62.533,AHTARI MYLLYMAKI,159.7,29240,99999
1076,5010,22.1,60.383,TURKU RAJAKARI,5.5,27470,99999
1077,5011,10.767000000000001,59.65,AS,89.0,14630,99999
1078,5012,84.32799999999999,65.983,YANOV-STAN,40.0,234630,99999
1079,5022,22.833000000000002,67.733,PARKALOMPOLO,313.0,20720,99999
1080,5023,126.35,72.4,IM YU A HABAROVA,19.6,217210,99999
1081,5025,-76.0,46.266999999999996,MANIWAKI AIRPORT,200.0,717210,99999
1082,5027,-122.85,61.117,LINDBURG LANDING  NWT,183.0,716820,99999
1083,5029,-113.46700000000001,54.0,LEGAL AGCM,680.0,715440,99999
1084,5030,12.383,50.067,CHEB,490.0,114060,99999
1085,5031,5.067,59.917,SLATTEROY FYR,16.0,14060,99999
1086,5042,14.15,62.5,KLOVSJOHOJDEN,803.0,23250,99999
1087,5058,20.283,63.792,UMEA,7.3,22860,99999
1088,5061,7.15,53.2,NIEUW BEERTA,0.0,62860,99999
1089,5062,103.8,46.967,BAT OLDZIY BUND,1358.0,442860,99999
1090,5066,14.517000000000001,66.383,STORFORSHEI,110.0,11480,99999
1091,5070,28.945,61.943000000000005,SAVONLINNA,94.8,29480,99999
1092,5093,38.133,54.0,UZLOVAJA,231.0,278210,99999
1093,5100,39.417,57.2,ROSTOV,101.0,273290,99999
1094,5117,10.433,55.317,AARSLEV,51.0,61260,99999
1095,5118,150.72,59.911,SOKOL,175.0,259130,99999
1096,5123,13.213,56.083,LJUNGBYHED,42.7,20001,99999
1097,5132,6.142,51.602,NIEDERRHEIN,32.3,100001,99999
1098,5133,135.86700000000002,63.95,TOMPO,402.0,246710,99999
1099,5138,43.667,49.8,FROLOVO,119.0,343560,99999
1100,5141,91.56700000000001,48.016999999999996,HOVD,1405.0,442180,99999
1101,5143,-8.0,53.016999999999996,GURTEEN,76.0,39660,99999
1102,5144,84.083,60.35,VANZIL'-KYNAK,99.0,239660,99999
1103,5148,66.667,66.533,SALEHARD,16.0,233300,99999
1104,5150,-1.983,53.133,LEEK THORNCLIFFE,299.0,33300,99999
1105,5152,-4.0,54.8,DUNDRENNAN,113.0,31530,99999
1106,5157,30.717,61.717,SORTAVALA,19.0,228020,99999
1107,5158,23.75,61.467,TAMPERE HARMALA,86.0,27630,99999
1108,5160,17.567,60.733000000000004,EGGEGRUND,4.0,24500,99999
1109,5161,4.46,51.18899999999999,DEURNE,11.9,64500,99999
1110,5171,15.5,77.0,HORNSUND,12.0,10030,99999
1111,5173,-115.18299999999999,50.933,NAKISKA RIDGETOP  ALTA,2543.0,712450,99999
1112,5174,-131.0,51.933,CAPE ST JAMES CS  BC,92.0,711070,99999
1113,5176,12.1,67.517,ROST (NOR-AFB),4.0,11070,99999
1114,5178,-117.447,56.227,PEACE RIVER,570.9,710680,99999
1115,5179,25.983,71.017,HONNINGSVAG/VALAN,14.0,10680,99999
1116,5185,-104.0,53.333,NIPAWIN  SASK,372.0,713120,99999
1117,5186,10.183,46.967,GALTUER,1584.0,113120,99999
1118,5188,15.799000000000001,52.138999999999996,BABIMOST,59.1,123120,99999
1119,5189,37.383,50.067,VELYKYI BURLUK,175.0,343120,99999
1120,5190,27.633000000000003,50.6,NOVOHRAD-VOLYNS'KYI,218.0,333120,99999
1121,5194,32.883,66.7,KOVDA,18.0,223120,99999
1122,5195,5.882999999999999,52.7,MARKNESSE AWS,-3.0,62730,99999
1123,5197,11.017000000000001,63.233000000000004,SELBU,160.0,12730,99999
1124,5198,46.967,50.95,KRASNYJ KUT,50.0,342730,99999
1125,5201,5.4270000000000005,47.038999999999994,TAVAUX,196.6,72553,99999
1126,5209,11.783,53.427,SCHWERIN PARCHIM,50.6,101624,99999
1127,5215,-105.98299999999999,49.167,ROCKGLEN (AUT)  SASK,917.0,711350,99999
1128,5217,25.678,62.398999999999994,JYVASKYLA,139.9,29350,99999
1129,5218,-4.587,55.50899999999999,PRESTWICK,19.8,31350,99999
1130,5219,31.25,51.467,CHERNIHIV,141.0,331350,99999
1131,5224,-115.78299999999999,60.833,HAY RIVER A,165.5,719350,99999
1132,5238,94.5,51.717,KYZYL,628.0,360960,99999
1133,5247,84.917,56.5,TOMSK,139.0,294300,99999
1134,5250,89.46700000000001,58.45,LOSINOBORSKOE,133.0,292530,99999
1135,5259,127.06700000000001,62.266999999999996,BERDIGESTYAH,231.4,247580,99999
1136,5261,9.167,46.25,GRONO,324.3,67580,99999
1137,5263,-60.05,46.17,SYDNEY RCS,63.0,717580,99999
1138,5272,-3.218,47.3,BELLE ILE-LE TALUT,43.0,72070,99999
1139,5273,4.0169999999999995,48.321999999999996,BARBEREY,118.3,71680,99999
1140,5301,-126.79799999999999,65.282,NORMAN WELLS,72.5,710430,99999
1141,5307,-53.717,66.95,SISIMIUT MITTARFIA (HOLSTEINS,8.0,42340,99999
1142,5311,-14.0,65.28,ICELAND SITE,92.4,41950,99999
1143,5314,93.43299999999999,61.016999999999996,VEL'MO,121.8,239820,99999
1144,5318,-2.033,52.15,PERSHORE,31.0,35290,99999
1145,5322,-4.883,57.717,LOCH GLASCARNOCH,264.0,30310,99999
1146,5323,74.633,56.1,BOL'SHERECH'E,77.0,285930,99999
1147,5325,43.35,61.133,SHANGALY,117.2,228690,99999
1148,5326,38.117,63.9,ONEGA,13.0,226410,99999
1149,5327,14.728,56.928999999999995,KRONOBERG,185.9,26410,99999
1150,5328,17.942,59.354,BROMMA,14.3,24640,99999
1151,5330,156.7,57.083,UST'- HAJRJUZOVO,8.0,322870,99999
1152,5331,19.267,65.6,ARVIDSJAUR,384.0,21490,99999
1153,5332,15.0,48.383,BAERNKOPF,970.0,113670,99999
1154,5338,14.317,55.483000000000004,SKILLINGE,5.0,26250,99999
1155,5340,-114.44,62.463,YELLOWKNIFE,205.7,719360,99999
1156,5345,127.3,53.7,ZEJA,229.0,313000,99999
1157,5346,13.217,46.933,OBERVELLACH,809.0,112610,99999
1158,5349,130.9,57.766999999999996,CJUL'BJU,255.0,311230,99999
1159,5351,82.7,71.883,SOPOCHNAYA KARGA,5.9,208710,99999
1160,5357,18.25,63.133,VASTMARKUM,143.0,22600,99999
1161,5361,5.183,52.1,DE BILT,4.0,62600,99999
1162,5369,-105.262,55.151,LA RONGE,378.6,719220,99999
1163,5372,155.88299999999998,60.717,SHELIHOVA,33.3,259220,99999
1164,5375,17.167,46.683,SARMELLEK,125.0,129220,99999
1165,5387,-119.28299999999999,52.117,BLUE RIVER,682.8,718830,99999
1166,5390,27.75,64.217,KAJAANI PETAISENNISKA,161.5,28830,99999
1167,5402,123.91799999999999,47.24,SANJIAZI,145.4,507450,99999
1168,5405,9.783999999999999,49.118,SCHWABISCH HALL,399.6,107450,99999
1169,5408,8.317,46.5,ULRICHEN,1347.1,67450,99999
1170,5409,29.183000000000003,67.167,SALLA NARUSKA,214.7,27450,99999
1171,5415,1.95,46.183,GUERET ST LAURENT,366.0,73610,99999
1172,5430,31.633000000000003,56.483000000000004,TOROPEC,187.0,264790,99999
1173,5431,80.167,52.483000000000004,RODINO,158.0,360200,99999
1174,5445,82.494,50.037,UST KAMENOGORSK,286.2,350675,99999
1175,5446,164.167,68.117,OSTROVNOE,94.0,251380,99999
1176,5450,-125.98299999999999,50.45,FANNY ISLAND,8.0,715680,99999
1177,5464,30.033,52.9,ZHLOBIN,142.0,269660,99999
1178,5468,-59.633,50.45,CHEVERY  QUE,8.0,718140,99999
1179,5469,-111.73299999999999,53.417,RANFURLY AUTO,687.0,716370,99999
1180,5470,-64.833,47.8,BAS CARAQUET  NB,5.0,715980,99999
1181,5472,13.004000000000001,47.793,SALZBURG,430.1,111500,99999
1182,5474,13.667,48.1,WOLFSEGG,615.6,110010,99999
1183,5476,11.183,47.317,SEEFELD,1183.7,111190,99999
1184,5477,121.7,50.45,TULIHE,733.0,504340,99999
1185,5483,126.25,45.623000000000005,TAIPING,139.3,541611,99999
1186,5484,8.65,59.85,GAUSTATOPPEN,1803.7,14611,99999
1187,5499,15.617,48.417,KREMS,204.0,110700,99999
1188,5500,-111.133,49.217,PAKOWKI LAKE AGCM,915.0,710700,99999
1189,5505,10.619000000000002,56.3,AARHUS,25.0,60700,99999
1190,5517,27.9,62.8,KUOPIO RITONIEMI,87.0,27320,99999
1191,5521,-79.1,46.717,BARRAGE TEMISCAMINGUE,181.0,717320,99999
1192,5527,0.833,51.55,SHOEBURYNESS  LANDWICK,3.0,36930,99999
1193,5532,9.1,47.266999999999996,EBNAT-KAPPEL,623.0,66930,99999
1194,5535,6.667000000000001,46.516999999999996,PULLY,462.0,67110,99999
1195,5536,21.8,54.633,CHERNYAHOVSK,31.1,267110,99999
1196,5581,28.183000000000003,61.516999999999996,PUUMALA KK URHEILUKENTTA,98.0,27180,99999
1197,5586,22.85,66.267,OVERKALIX SVARTBYN,62.0,21810,99999
1198,5588,5.75,59.483000000000004,NEDRE VATS,65.0,14170,99999
1199,5598,9.55,58.85,JOMFRULAND FYR,5.0,14760,99999
1200,5599,6.65,61.167,VANGSNES,51.0,13380,99999
1201,5600,10.467,61.1,LILLEHAMMER-SAETHERENGEN,239.0,13780,99999
1202,5602,-179.11700000000002,66.35,EGVEKINOT,26.0,253780,99999
1203,5607,-4.9830000000000005,50.433,NEWQUAY CORNWALL,119.0,33465,99999
1204,5608,31.183000000000003,57.15,HOLM,71.0,263780,99999
1205,5612,-159.004,66.562,SELAWIK 28 E,6.7,999999,96407
1206,5625,-150.875,63.452,DENALI 27 N,678.2,999999,96408
1207,5631,-116.98200000000001,51.299,GOLDEN,784.9,710354,99999
1208,5652,-0.358,51.8,ROTHAMSTED,128.0,36800,99999
1209,5654,-113.85,63.6,LOWER CARP LAKE  NWT,373.0,716800,99999
1210,5658,86.0,51.433,CEMAL,420.0,360580,99999
1211,5660,-2.286,51.43899999999999,COLERNE,180.7,36584,99999
1212,5668,25.733,46.367,MIERCUREA CIUC,662.0,151700,99999
1213,5671,34.967,48.6,DNIPROPETROVS'K,143.0,345040,99999
1214,5684,16.912,58.788999999999994,SKAVSTA,42.7,24853,99999
1215,5686,22.767,49.8,PRZEMYSL,280.0,126950,99999
1216,5703,13.617,47.633,BAD GOISERN,503.0,113540,99999
1217,5704,-117.81700000000001,50.266999999999996,NAKUSP CS  BC,512.1,712160,99999
1218,5706,8.917,61.251000000000005,BEITOSTOLEN II,965.0,13650,99999
1219,5708,14.767000000000001,47.2,ZELTWEG/AUTOM. STAT.,682.0,113650,99999
1220,5720,14.1,46.717,FELDKIRCHEN,551.0,112270,99999
1221,5725,23.25,57.783,RUHNU,2.0,262270,99999
1222,5727,-112.23299999999999,53.183,HOLDEN AGDM  ALTA,688.0,712270,99999
1223,5728,8.783,62.717,INNERDALEN,405.0,12270,99999
1224,5729,-2.45,54.683,GREAT DUN FELL NO2,847.0,32270,99999
1225,5733,22.383000000000003,65.317,RODKALLEN,2.0,21880,99999
1226,5734,12.417,55.883,SJAELSMARK,40.0,61880,99999
1227,5739,71.467,51.022,ASTANA INTL,355.1,351880,99999
1228,5741,-3.8160000000000003,48.603,PLOUJEAN,82.9,71604,99999
1229,5744,4.272,56.343999999999994,HARALD HELIDECK OIL RIG,95.0,60224,99999
1230,5757,45.766999999999996,57.85,VETLUGA,136.0,272770,99999
1231,5759,0.11699999999999999,48.45,ALENCON/VALFRAMBERT,141.0,71390,99999
1232,5760,-1.195,46.178999999999995,ILE DE RE,22.6,73160,99999
1233,5761,37.583,57.35,KASIN,138.0,273160,99999
1234,5762,140.467,52.383,BOGORODSKOE,35.0,314390,99999
1235,5765,32.067,53.35,KOSTUCKOVICHI,167.0,268870,99999
1236,5766,7.7829999999999995,45.983000000000004,GORNERGRAT,3129.3,67490,99999
1237,5769,10.133,56.083,AARHUS SYD,55.0,60740,99999
1238,5772,14.9,48.1,AMSTETTEN,271.0,110180,99999
1239,5779,-52.8,68.717,AASIAAT MITTARFIA,27.0,42021,99999
1240,5781,23.383000000000003,55.883,SIAULIAI INTL,138.0,265021,99999
1241,5789,123.4,66.767,ZHIGANSK,92.0,243430,99999
1242,5792,-69.383,77.483,MITTARFIK QAANAAQ,16.0,42050,99999
1243,5797,-10.25,51.933,VALENTIA OBSERVATORY,30.0,39530,99999
1244,5800,89.01700000000001,62.467,BAHTA,57.1,237760,99999
1245,5803,-0.85,60.75,BALTASOUND NO.2,15.0,30020,99999
1246,5806,-4.433,55.872,GLASGOW,7.9,31400,99999
1247,5808,18.633,59.833,SVANBERGA,16.0,24900,99999
1248,5810,5.917000000000001,50.483000000000004,SPA/LA SAUVENIERE,482.0,64900,99999
1249,5816,-102.417,65.083,ROBERTSON LAKE (AUT)  NU,244.0,714900,99999
1250,5817,10.683,59.983000000000004,TRYVANNSHOGDA,528.0,14900,99999
1251,5819,45.766999999999996,64.9,LESUKONSKOE,71.0,225730,99999
1252,5820,15.515,60.422,BORLANGE,153.3,24350,99999
1253,5821,17.213,48.17,M R STEFANIK,132.9,118160,99999
1254,5823,9.4,61.516999999999996,SKABU,928.0,13700,99999
1255,5824,7.85,62.45,VINJEORA II,67.0,12320,99999
1256,5829,112.367,45.733000000000004,BAYANDELGER,1101.0,443520,99999
1257,5838,13.417,47.983000000000004,FRANKENMARKT,571.0,113520,99999
1258,5850,-54.617,70.683,NUUSSUAATAA (NUUSSUAQ),27.0,42140,99999
1259,5851,89.93299999999999,48.933,ULGI,1715.0,442140,99999
1260,5852,21.816999999999997,58.383,VILSANDI,6.0,262140,99999
1261,5853,52.583,58.133,GLAZOV,169.0,282140,99999
1262,5854,-3.264,54.131,WALNEY ISLAND,14.3,32140,99999
1263,5860,-63.58,64.95,CAPE MERCY,583.0,719750,99999
1264,5861,25.043000000000003,60.255,HELSINKI MALMI,17.4,29750,99999
1265,5866,119.06700000000001,50.333,PRIARGUNSK,521.1,309750,99999
1266,5867,46.033,45.35,KOMSOMOL'SKIJ,-1.7,349750,99999
1267,5871,36.45,61.016999999999996,VYTEGRA,56.0,228370,99999
1268,5874,9.91,48.22,LAUPHEIM,538.3,108370,99999
1269,5878,-113.117,49.367,ST MARY RESEVOIR,1128.0,718370,99999
1270,5880,94.2,53.683,KAZYR,446.1,298760,99999
1271,5886,49.117,62.167,JARENSK,92.0,227980,99999
1272,5892,28.833000000000002,63.667,VALTIMO KK,115.0,27980,99999
1273,5893,10.283,46.8,SCUOL,1295.0,67980,99999
1274,5895,49.266999999999996,46.6,GANJUSHKINO,-23.0,347980,99999
1275,5912,10.889000000000001,45.396,VILLAFRANCA,72.8,160900,99999
1276,5914,93.68299999999999,51.133,HOVU-AKSY,1043.0,360900,99999
1277,5918,21.338,45.81,TRAIAN VUIA,106.1,152470,99999
1278,5919,26.383000000000003,46.917,PIATRA NEAMT,361.0,151090,99999
1279,5934,66.3,51.083,DERZHAVINSK,243.0,351670,99999
1280,5935,36.3,52.317,PONYRI,251.0,340030,99999
1281,5938,42.85,45.35,SVETLOGRAD,140.0,349540,99999
1282,5939,136.8,51.2,GORIN,92.0,314890,99999
1283,5943,17.767,54.417,LEBUNIA,151.0,121360,99999
1284,5944,19.967,49.3,ZAKOPANE,857.0,126250,99999
1285,5946,-100.883,61.117,ENNADAI LAKE (AUT)  NU,353.0,719230,99999
1286,5948,-123.18299999999999,49.183,VANCOUVER SEA ISLAND CCG,2.1,716080,99999
1287,5949,-104.7,50.2,BRATT'S LAKE UA  SASK,580.0,715690,99999
1288,5952,-55.383,46.917,ST LAWRENCE,49.0,711100,99999
1289,5953,10.232999999999999,47.133,GALZIG,2080.0,111100,99999
1290,5955,30.033,69.45,PASVIK,27.0,10840,99999
1291,5958,101.03299999999999,55.383,TANGUJ,423.0,304050,99999
1292,5973,2.9330000000000003,54.317,D15-FA-1 HELIPAD OIL PLATFORM,36.0,62010,99999
1293,5979,12.417,46.75,SILLIAN,1081.0,112010,99999
1294,5983,23.05,46.367,CAMPENI,611.0,151620,99999
1295,5987,-113.71700000000001,61.917,INNER WHALEBACKS  NWT,165.0,711620,99999
1296,5988,15.017000000000001,68.583,STORKMARKNES/SKAGEN,3.0,11620,99999
1297,5989,-3.2,55.317,ESKDALEMUIR,242.0,31620,99999
1298,5994,-2.215,49.706,ALDERNEY,88.4,38915,99999
1299,5997,8.083,66.017,NORNE OIL PLATFORM,90.0,10876,99999
1300,6004,-116.03299999999999,58.383,FORT VERMILION,289.0,710240,99999
1301,6007,128.903,71.69800000000001,TIKSI,9.1,218240,99999
1302,6010,98.81700000000001,53.95,HADAMA,705.0,298920,99999
1303,6016,48.243,54.276,ULYANOVSK,141.0,277850,99999
1304,6022,47.933,46.917,DOSANG,-19.0,347850,99999
1305,6032,-2.717,47.6,VANNES/SENE,3.0,72100,99999
1306,6035,27.467,55.367,SHARCOVSCHINA,131.0,266430,99999
1307,6037,32.067,54.75,SMOLENSK,239.0,267810,99999
1308,6039,7.7829999999999995,47.25,WYNAU,416.0,66430,99999
1309,6043,-1.683,51.867,LITTLE RISSINGTON,210.0,36470,99999
1310,6065,159.983,54.117,SEMYACHIK,27.0,325090,99999
1311,6068,21.083000000000002,55.733000000000004,KLAIPEDA,7.3,265090,99999
1312,6070,36.233000000000004,48.133,CHAPLYNE,175.0,345090,99999
1313,6075,25.633000000000003,60.967,LAHTI LAUNE,78.7,29650,99999
1314,6076,27.5,69.067,INARI VAYLA,123.5,28270,99999
1315,6077,27.316999999999997,63.15,KUOPIO MAANINKA,91.3,27880,99999
1316,6088,136.183,47.667,GVASJUGI,180.0,318010,99999
1317,6089,-52.751999999999995,47.619,ST JOHNS INTL,140.5,718010,99999
1318,6090,15.382,49.94,CASLAV,242.0,116240,99999
1319,6092,9.567,56.5,FOULUM,58.0,60690,99999
1320,6094,8.2,59.5,HOYDALSMO II,562.0,14470,99999
1321,6113,7.8,64.35,DRAUGEN,0.0,10231,99999
1322,6117,17.828,48.625,PIESTANY,166.1,119274,99999
1323,6123,9.567,59.185,GEITERYGGEN,141.1,10884,99999
1324,6126,-66.267,50.217,SEPT ILES,54.9,718110,99999
1325,6134,31.5,80.067,KVITOYA,10.0,10110,99999
1326,6141,93.43299999999999,54.367,ARTEMOVSK,479.3,297720,99999
1327,6142,-123.8,49.217,ENTRANCE ISLAND CS  BC,5.0,717720,99999
1328,6147,-0.461,51.478,HEATHROW,25.3,37720,99999
1329,6150,20.767,48.083,MISKOLC,236.0,127720,99999
1330,6156,7.817,46.417,BLATTEN-LOETSCHENTAL,1538.2,67250,99999
1331,6163,91.385,53.74,ABAKAN,253.3,287854,99999
1332,6164,-65.583,47.433,RED PINES,124.0,716340,99999
1333,6185,23.25,50.7,ZAMOSC,213.0,125950,99999
1334,6186,18.433,57.55,ROMA,35.0,25950,99999
1335,6188,49.278999999999996,55.606,KAZAN,126.2,275950,99999
1336,6194,33.367,46.783,NOVA KAKHOVKA,25.0,338690,99999
1337,6200,19.183,47.433,BUDAPEST/PESTSZENTLORINC,139.0,128430,99999
1338,6204,-111.85,50.55,BROOKS  ALTA,747.0,714570,99999
1339,6206,13.617,49.067,CHURANOV,1122.2,114570,99999
1340,6212,-84.81700000000001,47.717,LAKE SUPERIOR PROVINCIAL PARK,400.6,716400,99999
1341,6214,13.65,47.1,ST. MICHAEL IM LUNGAU,1094.0,111480,99999
1342,6215,-98.9,49.183,PILOT MOUND (AUT),470.0,711480,99999
1343,6216,-135.433,69.617,PELLY ISLAND  NWT,17.0,715020,99999
1344,6220,9.511000000000001,47.67100000000001,FRIEDRICHSHAFEN,416.7,109350,99999
1345,6222,-112.26700000000001,53.917,ANDREW AGDM  ALTA,625.0,712860,99999
1346,6223,108.75,50.367,KRASNYJ CHIKOJ,771.0,309350,99999
1347,6224,113.306,52.026,KADALA,692.5,307580,99999
1348,6230,-70.633,47.283,CHARLEVOIX (MRX),723.0,713190,99999
1349,6232,3.867,51.233000000000004,WESTDORPE,2.0,63190,99999
1350,6233,13.85,62.75,BORTNAN,467.0,23190,99999
1351,6235,5.382999999999999,61.033,TAKLE,38.0,13190,99999
1352,6236,37.7,49.633,KUPIANS'K,83.0,343190,99999
1353,6237,23.967,45.417,VOINEASA,575.0,153190,99999
1354,6257,93.133,56.9,BOL'SHAJA MURTA,180.0,294710,99999
1355,6263,66.967,54.367,BLAGOVESHCHENKA,151.0,287660,99999
1356,6277,125.31700000000001,60.817,ISIT',118.0,249510,99999
1357,6278,48.083,52.5,HVALYNSK,88.0,340830,99999
1358,6283,12.85,45.75,CONCORDIA SAGITTARIA,2.0,161070,99999
1359,6286,12.717,55.533,DROGDEN,6.0,61830,99999
1360,6287,26.55,59.516999999999996,KUNDA,3.0,260450,99999
1361,6294,34.283,63.766999999999996,SEGEZA,112.0,226210,99999
1362,6295,9.283,47.6,GUETTINGEN,440.0,66210,99999
1363,6297,34.2,49.15,KOBELIAKY,118.0,336210,99999
1364,6315,-128.15,52.183,BELLA BELLA CAMPBELL,43.0,715820,99999
1365,6319,-49.693999999999996,69.49600000000001,JAR 1,905.0,44520,99999
1366,6321,-18.117,65.683,AKUREYRI A,31.0,41370,99999
1367,6322,48.833,52.033,PUGACEV,38.0,340980,99999
1368,6323,32.7,45.516999999999996,CHORNOMORS'KE,10.0,339240,99999
1369,6324,-5.872999999999999,54.618,CITY,4.6,39240,99999
1370,6325,-5.7,55.433,MACHRIHANISH,10.0,31110,99999
1371,6328,-3.417,56.883,CAIRNWELL,933.0,30720,99999
1372,6330,22.85,63.95,KOKKOLA TANKAR,6.3,27210,99999
1373,6332,34.433,62.917,MEDVEZEGORSK,81.0,227210,99999
1374,6341,7.11,49.215,SAARBRUCKEN,322.5,107080,99999
1375,6342,14.067,48.167,WELS/SCHLEISSHEIM,314.0,110590,99999
1376,6345,4.9830000000000005,62.033,KRAKENES,41.0,12030,99999
1377,6347,-110.71700000000001,50.033,MEDICINE HAT RCS,715.0,710260,99999
1378,6348,18.933,69.65,TROMSO,114.5,10260,99999
1379,6349,-113.81700000000001,49.617,BROCKET AGDM  ALTA,1073.0,713410,99999
1380,6350,-130.217,67.167,LITTLE CHICAGO  NWT,63.0,711640,99999
1381,6355,-1.379,46.702,LES AJONCS,91.1,73060,99999
1382,6359,-78.083,58.467,INUKJUAK ARPT,25.0,713060,99999
1383,6362,7.3870000000000005,52.291000000000004,RHEINE BENTLAGE,39.3,103060,99999
1384,6368,-112.8,49.633,LETHBRIDGE,929.0,712670,99999
1385,6371,5.382999999999999,52.9,STAVOREN AWS,3.0,62670,99999
1386,6373,18.99,63.408,ORNSKOLDSVIK,107.9,22670,99999
1387,6379,29.608,62.663000000000004,JOENSUU,121.3,29290,99999
1388,6386,-101.29899999999999,47.795,DELTA (MAX),631.6,721014,99999
1389,6398,8.633,56.933,SILSTRUP,41.0,60190,99999
1390,6400,22.483,62.933,SEINAJOKI PELMAA,31.7,28330,99999
1391,6404,8.417,58.6,HYNNEKLEIV,162.0,14530,99999
1392,6405,6.1,60.633,EVANGER,17.0,13150,99999
1393,6406,31.045,70.355,VARDO AP / SVARTNES,12.8,10990,99999
1394,6407,87.117,52.25,TUROCAK,326.0,360610,99999
1395,6420,21.65,46.25,SIRIA,473.0,151790,99999
1396,6424,-68.133,49.25,BAIE COMEAU  QUE,130.0,718290,99999
1397,6435,14.517000000000001,46.067,LJUBLJANA/BEZIGRAD,298.0,140150,99999
1398,6439,106.75,47.85,SONGIIN,1272.0,442910,99999
1399,6461,65.933,65.833,PITLYAR,16.5,234310,99999
1400,6470,3.8,51.183,GENT/INDUSTRIE-ZONE,8.0,64310,99999
1401,6473,9.212,59.566,NOTODDEN,19.2,14703,99999
1402,6486,-71.283,46.78,STE FOY (U. LAVAL)  QUE,91.0,713920,99999
1403,6499,-139.13,64.05,DAWSON,370.0,719664,99999
1404,6504,17.317,64.167,ASELE,308.0,22540,99999
1405,6506,111.45,48.85,TATAAL,994.0,442540,99999
1406,6507,42.683,50.533,NOVOANNENSKIJ,98.0,342540,99999
1407,6509,23.933000000000003,45.65,PALTINIS SIBIU,1454.0,152540,99999
1408,6510,-112.81700000000001,53.033,CAMROSE  ALTA,739.0,712540,99999
1409,6520,54.65,58.983000000000004,KUDYMKAR,186.0,281160,99999
1410,6526,22.831,58.99100000000001,KARDLA,5.5,261160,99999
1411,6532,-108.43299999999999,55.833,BUFFALO NARROWS (AUT)   SASK,440.0,710770,99999
1412,6561,8.083,46.433,EGGISHORN,2893.0,67390,99999
1413,6570,3.61,60.886,TROLL C OIL PLATFORM,20.0,10887,99999
1414,6582,8.11,46.743,MEIRINGEN,579.1,66140,99999
1415,6589,142.783,60.717,UEGA,398.0,249820,99999
1416,6596,27.691999999999997,64.285,KAJAANI,147.2,28970,99999
1417,6597,29.0,60.2,OZERKI,11.0,228970,99999
1418,6598,25.6,60.4,PORVOO HARABACKA,23.5,27590,99999
1419,6603,-59.183,55.083,MAKKOVIK,71.0,710349,99999
1420,6606,17.1,66.317,JAKKVIK,552.0,21230,99999
1421,6611,-76.533,64.233,CAPE DORSET A,48.0,719100,99999
1422,6614,135.88299999999998,48.817,ELABUGA,58.0,317330,99999
1423,6619,-105.25,51.417,LAST MOUNTAIN CS,497.0,715560,99999
1424,6621,0.083,49.533,LE HAVRE-OCTEVILLE,94.0,70460,99999
1425,6635,9.538,54.312,HOHN,11.9,100380,99999
1426,6653,9.604,63.699,ORLAND,8.5,12410,99999
1427,6676,29.333000000000002,53.5,KLICHEV,155.0,268640,99999
1428,6685,-105.559,50.33,MOOSE JAW AIR VICE MARSHAL C,576.7,718640,99999
1429,6704,81.883,54.367,ORDYNSKOE,132.0,297260,99999
1430,6714,-1.933,49.717,LA HAGUE,12.0,70200,99999
1431,6732,56.117,45.4,SAM,88.0,359250,99999
1432,6740,35.25,48.8,HUBYNYKHA,127.0,344070,99999
1433,6743,26.1,61.883,JOUTSA LEIVONMAKI SAVENAHO,146.0,27710,99999
1434,6747,-113.51700000000001,54.283,TAWATINAW AGCM,611.0,715490,99999
1435,6754,-8.232999999999999,54.483000000000004,FINNER,34.7,39780,99999
1436,6759,12.482999999999999,66.767,MYKEN,13.0,11150,99999
1437,6763,27.166999999999998,66.717,KEMIJARVI AIRFIELD,208.0,28140,99999
1438,6771,23.5,60.817,JOKIOINEN,103.0,29630,99999
1439,6772,27.9,70.083,UTSJOKI NUORGAM,22.0,28250,99999
1440,6776,-85.43299999999999,54.983000000000004,PEAWANUCK (AUT),53.0,714340,99999
1441,6779,7.367000000000001,59.766999999999996,VAAGSLI,822.0,14340,99999
1442,6782,17.033,47.766999999999996,ANDAU,122.0,113950,99999
1443,6784,-112.667,51.65,MORRIN AGDM  ALTA,836.0,712570,99999
1444,6786,10.45,63.417,TRONDHEIM/VOLL,131.5,12570,99999
1445,6795,24.783,60.183,ESPOO TAPIOLA,7.5,29851,99999
1446,6800,25.366999999999997,64.933,OULU OULUNSALO PELLONPAA,12.0,28510,99999
1447,6801,-110.68299999999999,49.367,MANYBERRIES AGCM,927.0,710510,99999
1448,6802,13.033,48.217,RANSHOFEN,388.1,110510,99999
1449,6803,42.766999999999996,59.967,TOTMA,134.0,270510,99999
1450,6805,170.597,69.783,PEVEK,3.4,250510,99999
1451,6816,-76.117,51.7,NEMISCAU ARPT(SAWR),244.0,718113,99999
1452,6825,73.311,54.967,OMSK,94.8,286980,99999
1453,6831,25.133000000000003,61.217,HAMEENLINNA LAMMI EVO,134.0,27130,99999
1454,6834,-70.017,47.35,LA POCATIERE  QUE,31.0,717130,99999
1455,6835,132.95,48.733000000000004,BIROBIDZHAN,80.0,317130,99999
1456,6845,80.4,73.5,OSTROV DIKSON,47.0,206740,99999
1457,6850,8.467,47.183,CHAM,443.4,66740,99999
1458,6854,163.017,60.733000000000004,CHEMURNAUT,14.0,259410,99999
1459,6862,16.381,46.295,VARAZDIN,167.0,142460,99999
1460,6866,13.167,57.783,RANGEDALA,299.0,25360,99999
1461,6871,25.8,49.016999999999996,CHORTKIV,318.0,335360,99999
1462,6872,-112.68299999999999,49.483000000000004,RAYMOND AGDM  ALTA,937.0,715360,99999
1463,6880,17.833,47.067,VESZPREM/SZENTKIRALYSZABADJA,281.0,128300,99999
1464,6882,12.15,58.2,TORPABRON,20.0,25150,99999
1465,6886,6.767,45.617,BOURG ST-MAURICE,868.0,74970,99999
1466,6902,8.2,60.533,GEILO-OLDEBRATEN,773.0,13590,99999
1467,6903,-110.583,53.667,DEWBERRY AGCM,616.0,713590,99999
1468,6904,13.9,47.433,GROEBMING,765.0,113590,99999
1469,6908,28.9,57.016999999999996,PUSKINSKIE GORY,108.0,263590,99999
1470,6921,1.983,57.367,MUNGO OIL PLATFORM,470.0,31406,99999
1471,6936,6.109,46.238,GENEVA COINTRIN,430.1,67000,99999
1472,6938,150.667,62.8,EL' GEN (SOVHOZ),312.4,257000,99999
1473,6948,6.7170000000000005,46.617,VILLARS-TIERCELIN,859.0,67070,99999
1474,6958,15.467,56.833,KOSTA (ORREFORS),232.0,26610,99999
1475,6959,65.4,55.467,KURGAN,74.0,286610,99999
1476,6962,12.130999999999998,55.586000000000006,ROSKILDE,44.5,61700,99999
1477,6963,10.333,57.383,STENHOJ,55.0,60320,99999
1478,6966,26.416999999999998,45.6,PENTELEU,1626.0,152840,99999
1479,6968,-22.333000000000002,64.05,STRAUMSVIK,5.0,41240,99999
1480,6970,38.683,55.766999999999996,PAVLOVSKIJ POSAD,135.0,275230,99999
1481,6974,-6.817,54.717,LOUGH FEA,227.0,39110,99999
1482,6978,-0.917,50.817,THORNEY ISLAND,3.0,38720,99999
1483,6981,-130.63299999999998,53.5,BONILLA ISLAND (AUT)  BC,15.0,714840,99999
1484,6982,11.583,59.917,AURSKOG,128.0,14840,99999
1485,6987,18.067,59.35,STOCKHOLM/OBSERVATORIET,44.0,24840,99999
1486,6988,5.582999999999999,49.617,BUZENOL,324.0,64840,99999
1487,6990,135.083,51.417,HULARIN,269.0,314840,99999
1488,6991,13.883,63.3,MATTMAR,365.0,22160,99999
1489,6993,18.45,49.55,LYSA HORA,1326.8,117870,99999
1490,6994,17.833,48.617,PIESTANY,164.0,118260,99999
1491,6995,15.7,48.467,LANGENOIS (AUT),210.0,110750,99999
1492,6998,14.3,66.367,MOIRANA,70.0,11510,99999
1493,6999,-94.367,49.783,KENORA RCS,413.0,711510,99999
1494,7000,27.033,57.433,ALUKSNE,193.0,263460,99999
1495,7004,13.0,47.217,RAURIS,935.0,113460,99999
1496,7009,-112.3,49.8,BARNWELL AGDM  ALTA,824.0,713460,99999
1497,7012,0.5670000000000001,52.417,LAKENHEATH RAF,10.0,35830,35034
1498,7014,-73.383,45.717,VARENNES  QUE,18.0,711840,99999
1499,7015,-140.2,69.62,KOMAKUK BEACH,13.0,710460,99999
1500,7016,-57.817,74.033,KITSISSORSUIT (EDDERFUGLE OEE,40.0,42080,99999
1501,7017,83.55,50.333,LENINOGORSK,811.0,362080,99999
1502,7018,5.95,53.5,AWG-1,27.0,62080,99999
1503,7020,35.883,57.8,MAKSATIKHA,142.0,272080,99999
1504,7028,4.899,48.636,ROBINSON,139.6,71690,99999
1505,7030,15.317,66.933,SALTDAL-NORDNES,37.0,11690,99999
1506,7032,11.283,56.016999999999996,GNIBEN,12.0,61690,99999
1507,7042,-100.05,51.1,DAUPHIN CS  MAN,305.0,715500,99999
1508,7043,9.567,47.483000000000004,ALTENRHEIN,398.4,66900,99999
1509,7054,0.483,52.367,MILDENHALL RAF,10.0,35770,35046
1510,7067,7.497000000000001,46.913999999999994,BERN BELP,510.2,66303,99999
1511,7091,37.983000000000004,48.6,ARTEMIVS'K,124.0,345100,99999
1512,7092,15.732999999999999,50.733000000000004,SNIEZKA,1613.0,125100,99999
1513,7100,9.15,60.05,VEGGLI II,275.0,14710,99999
1514,7102,21.533,68.683,NAIMAKKA,402.0,20550,99999
1515,7105,76.484,60.949,NIZHNEVARTOVSK,53.9,234710,99999
1516,7117,-0.562,52.961999999999996,BARKSTON HEATH,111.9,33723,99999
1517,7119,9.988,53.63,HAMBURG,16.2,101470,99999
1518,7126,40.783,57.733000000000004,KOSTROMA,126.0,273330,99999
1519,7144,107.48299999999999,47.3,MAANTI,1430.0,442940,99999
1520,7150,104.389,52.268,IRKUTSK,510.5,307100,99999
1521,7151,30.233,69.4,NIKEL,92.0,220040,99999
1522,7154,89.917,52.8,TASTYP,455.0,299560,99999
1523,7156,-82.56700000000001,45.883,GORE BAY CLIMATE,188.0,719560,99999
1524,7159,169.667,60.433,APUKA,5.0,259560,99999
1525,7161,26.933000000000003,60.883,KOUVOLA UTTI LENTOPORTINTIE,99.0,29560,99999
1526,7162,22.831999999999997,62.692,SEINAJOKI,91.7,29245,99999
1527,7164,11.783,55.083,AVNO AIR BASE,4.0,61245,99999
1528,7174,-57.033,53.717,CARTWRIGHT,14.0,718180,99999
1529,7183,9.767000000000001,46.433,SEGL-MARIA,1804.2,67790,99999
1530,7185,-122.5,53.033,QUESNEL AIRPORT AUTO,545.0,717790,99999
1531,7201,96.85,47.75,ULIASTAI,1759.0,442720,99999
1532,7203,22.333000000000002,46.266999999999996,GURAHONT,177.0,151820,99999
1533,7205,37.906,55.409,DOMODEDOVO,179.2,370008,99999
1534,7208,-109.03299999999999,47.067,NOVEMBER (GRASS RANGE),1161.3,721008,99999
1535,7231,23.033,46.85,HUEDIN,561.0,150990,99999
1536,7233,11.325999999999999,46.46,BOLZANO,240.5,160200,99999
1537,7234,22.166999999999998,46.633,DUMBRAVITA DE CODRU,586.0,151380,99999
1538,7238,-112.53299999999999,53.333,SHONTS AGCM,679.0,714050,99999
1539,7239,108.867,51.317,PETROVSKIJ ZAVOD,806.0,308380,99999
1540,7243,23.467,45.383,PARANG,1550.0,153200,99999
1541,7244,6.117000000000001,61.833,SANDANE/ANDA,60.0,13200,99999
1542,7247,-18.667,76.767,DANMARKSHAVN (PORT),12.0,43200,99999
1543,7248,3.667,51.933,LE GOEREE,19.0,63200,99999
1544,7249,-81.233,68.767,HALL BEACH CLIMATE  NU,8.0,713200,99999
1545,7252,-0.667,54.367,FYLINGDALES,262.0,32810,99999
1546,7259,12.85,64.733,NAMSSKOGAN,140.0,12810,99999
1547,7263,1.517,48.467,CHARTRES/CHAMPOL,156.0,71430,99999
1548,7264,16.083,68.05,DRAG-AJLUOKTA,19.0,11430,99999
1549,7269,124.0,68.733,DZARDZAN,39.0,241430,99999
1550,7283,-23.25,66.15,BOLUNGAVIK,24.0,40050,99999
1551,7287,87.68299999999999,56.183,MARIINSK,144.0,295510,99999
1552,7289,70.217,52.95,SUCINSK,395.0,289840,99999
1553,7296,31.05,63.15,ILOMANTSI POTSONVAARA,236.5,27660,99999
1554,7312,14.85,56.016999999999996,HANO,60.0,26280,99999
1555,7316,7.267,46.75,PLAFFEIEN,1041.0,66280,99999
1556,7319,15.083,49.567,KOSETICE,532.1,116280,99999
1557,7320,-75.669,45.323,OTTAWA MACDONALD CARTIER INTL,114.0,716280,99999
1558,7328,19.2,58.4,GOTSKA SANDON,17.0,25890,99999
1559,7329,-53.967,48.55,TERRA NOVA NAT PARK CS  NFLD,107.0,715890,99999
1560,7331,93.78299999999999,64.2,TUTONCHANY,105.0,235890,99999
1561,7332,90.3,48.417,TOLBO,2101.0,442170,99999
1562,7342,-4.117,50.35,PLYMOUTH/MOUNTBATTE,27.0,38270,99999
1563,7345,92.117,62.317,KUZ' MOVKA,62.0,237880,99999
1564,7347,-2.0669999999999997,60.117,FOULA NO2,13.0,30140,99999
1565,7354,20.783,69.05,ENONTEKIO KILPISJARVI,482.7,28010,99999
1566,7355,30.133000000000003,59.35,BELOGORKA,90.0,260690,99999
1567,7360,14.45,45.333,RIJEKA/KOZALA,125.0,142160,99999
1568,7364,10.8,60.766999999999996,KISE,128.0,13820,99999
1569,7365,-111.45,49.733000000000004,BOW ISLAND,817.0,712310,99999
1570,7366,23.533,45.967,SEBES ALBA,272.2,152310,99999
1571,7367,30.233,51.283,CHORNOBYL',127.0,332310,99999
1572,7368,82.95,58.317,KOLPASEVO,75.0,292310,99999
1573,7373,14.333,46.65,KLAGENFURT(CIV/MIL),452.0,112310,99999
1574,7374,-50.68899999999999,67.017,SONDRE STROMFJORD,50.3,42310,99999
1575,7376,125.31700000000001,46.383,ANDA,150.0,508540,99999
1576,7390,21.241,48.663000000000004,KOSICE,230.1,119271,99999
1577,7404,20.217,49.2,LOMNICKY STIT,2635.0,119300,99999
1578,7405,-115.78299999999999,54.15,WHITECOURT A,782.0,719300,99999
1579,7406,39.538000000000004,52.703,LIPETSK ARPT,178.9,279300,99999
1580,7416,96.367,61.667,BAJKIT,262.0,238910,99999
1581,7419,30.316999999999997,60.55,SOSNOVO,70.0,228910,99999
1582,7438,129.667,62.733000000000004,NAMTSY,89.8,247530,99999
1583,7463,26.233,59.133,VALKE-MAARJA,123.0,261410,99999
1584,7464,11.333,54.833,ABED,9.0,61410,99999
1585,7465,77.074,52.195,PAVLODAR,125.0,360030,99999
1586,7467,8.617,46.65,GUETSCH OB ANDERMATT,2284.2,67500,99999
1587,7470,12.817,55.383,FALSTERBO A,5.0,26150,99999
1588,7480,-109.95,54.92,JIMMY LAKE,658.0,710230,99999
1589,7481,102.26700000000001,60.333,VANAVARA,260.0,249080,99999
1590,7483,-119.98,74.13,AULVIK NATIONAL PARK,32.0,719740,99999
1591,7486,94.3,55.817,UJAR,375.0,295760,99999
1592,7487,69.65,48.3,KYZYLZHAR,-999.9,355760,99999
1593,7492,-77.95,72.7,POND INLET CLIMO,65.0,715760,99999
1594,7493,136.683,66.8,UST'-CHARKI,273.8,243710,99999
1595,7494,146.217,68.55,BELAYA GORA,41.0,241940,99999
1596,7497,43.783,52.25,RTISCEVO,213.0,340560,99999
1597,7517,36.817,65.2,ZIZGIN,17.0,224380,99999
1598,7521,13.333,50.383,TUSIMICE,326.2,114380,99999
1599,7522,40.383,48.933,MILLEROVO,155.0,344380,99999
1600,7523,-122.679,53.888999999999996,PRINCE GEORGE,691.0,718960,99999
1601,7525,-84.509,46.485,SAULT STE MARIE,192.0,712600,99999
1602,7527,13.167,47.0,MALLNITZ-BAD,1201.2,112600,99999
1603,7528,13.215,65.78399999999999,KJAERSTAD,72.2,11220,99999
1604,7529,23.616999999999997,52.067,TERESPOL,137.0,123990,99999
1605,7533,-169.833,66.15,MYS UELEN,3.0,253990,99999
1606,7534,-110.75,51.583,SEDALIA AGCM,755.0,713990,99999
1607,7558,92.133,54.367,IDRINSKOE,282.0,297660,99999
1608,7567,41.35,46.516999999999996,GIGANT,79.0,347400,99999
1609,7572,8.433,46.766999999999996,TITLIS,3094.3,67400,99999
1610,7578,43.317,53.333,PACELMA,261.0,278580,99999
1611,7581,-1.611,47.153,NANTES ATLANTIQUE,27.4,72220,99999
1612,7586,25.316999999999997,53.902,LIDA,157.0,268320,99999
1613,7588,5.443,50.637,LIEGE,200.9,64780,99999
1614,7591,-67.433,48.467,AMQUI  QUE,166.0,713860,99999
1615,7592,-114.68299999999999,51.766999999999996,SUNDRE A  ALTA,1114.0,712480,99999
1616,7603,7.35,47.35,DELEMONT,439.4,66020,99999
1617,7610,36.333,47.333,KYRYLIVKA,221.0,346090,99999
1618,7614,43.383,64.7,PINEGA,31.0,225630,99999
1619,7616,17.017,58.25,HARSTENA,18.0,25630,99999
1620,7625,-1.3330000000000002,52.367,CHURCH LAWFORD,106.0,35440,99999
1621,7630,19.256,47.437,FERIHEGY,150.9,128390,99999
1622,7639,6.517,58.516999999999996,EIK HOVE,66.0,14250,99999
1623,7645,23.733,56.65,JELGAVA,9.0,264250,99999
1624,7648,17.117,48.167,BRATISLAVA-LOLIBA,163.1,118130,99999
1625,7650,-111.678,54.131,CAMPSIE AUTO,647.0,716360,99999
1626,7651,9.15,58.633,LYNGOR FYR,5.0,14670,99999
1627,7652,11.1,60.8,HAMAR II,132.0,13860,99999
1628,7653,5.417000000000001,47.033,DOLE-TAVAUX,195.0,73860,99999
1629,7663,109.55,55.783,NIZHNEANGARSK,487.0,304330,99999
1630,7670,167.967,67.25,ILIRNEJ,353.0,252480,99999
1631,7672,16.55,46.033,KRIZEVCI,146.0,142480,99999
1632,7677,65.324,57.19,ROSCHINO,115.2,232204,99999
1633,7678,-112.1,47.333,GOLF (SIMMS),1310.6,721001,99999
1634,7680,-110.67,62.42,LUTSEL KE,179.0,718434,99999
1635,7683,56.917,65.967,UST'-USA,78.0,234120,99999
1636,7686,0.267,53.083,WAINFLEET (AUT),5.0,33920,99999
1637,7687,-61.983000000000004,46.45,EAST POINT (AUT)  PEI,8.0,714120,99999
1638,7690,21.8,61.461999999999996,PORI,13.4,29520,99999
1639,7709,-5.05,48.483000000000004,OUESSANT,68.0,71000,99999
1640,7712,1.829,61.206,STATFJORD B OIL PLATFORM,142.0,14881,99999
1641,7713,-124.5,49.833999999999996,POWELL RIVER,129.5,712081,99999
1642,7723,5.132999999999999,51.85,HERWIJNEN AWS,1.0,63560,99999
1643,7724,22.05,57.917,SORVE,4.0,262180,99999
1644,7750,40.717,64.6,TALAGI,18.9,225500,99999
1645,7752,14.069,57.758,JONKOPING,225.9,25500,99999
1646,7788,-0.318,45.658,CHATEAUBERNARD,31.1,74120,99999
1647,7804,-0.551,53.308,SCAMPTON,61.6,33730,99999
1648,7825,-114.21700000000001,51.067,COP UPPER  ALTA,1235.0,712350,99999
1649,7829,24.933000000000003,45.833,FAGARAS,429.0,152350,99999
1650,7831,4.781000000000001,52.923,DE KOOIJ,0.9,62350,99999
1651,7836,17.7,64.95,STORUMAN,279.0,21205,99999
1652,7846,-13.85,64.8,KAMBANES,34.0,41960,99999
1653,7867,-53.583,49.117,POOLS ISLAND,10.0,711966,99999
1654,7871,23.533,69.567,SUOLOVUOPMI LULIT,381.0,10580,99999
1655,7872,43.35,45.917,DIVNOE,87.0,348580,99999
1656,7874,8.15,56.0,HVIDE SANDE,5.0,60580,99999
1657,7897,43.233000000000004,54.633,TEMNIKOV,139.0,277520,99999
1658,7909,-97.03299999999999,52.35,BERENS RIVER,222.0,718428,99999
1659,7927,100.68299999999999,46.133,BAYANHONGOR,1859.0,442870,99999
1660,7930,-19.717,65.4,KOLKA,505.0,41490,99999
1661,7935,33.2,51.233000000000004,KONOTOP,149.0,332610,99999
1662,7936,-1.42,54.137,DISHFORTH,35.7,32610,99999
1663,7945,16.317,46.917,SZENTGOTTHARD/FARKASFA,313.0,129100,99999
1664,7947,21.066999999999997,63.433,MUSTASAARI VALASSAARET,11.0,29100,99999
1665,7952,13.337,59.445,KARLSTAD,107.3,24180,99999
1666,7974,19.733,52.583,PLOCK,109.0,123600,99999
1667,8007,160.733,59.6,TEVI,18.5,322220,99999
1668,8021,47.6,60.7,LAL' SK,84.1,229830,99999
1669,8027,48.4,53.183,SYZRAN',103.0,279830,99999
1670,8056,13.049000000000001,45.979,RIVOLTO,54.6,160450,99999
1671,8085,150.683,62.1,BOHAPCHA,348.8,257070,99999
1672,8092,-4.15,51.086999999999996,CHIVENOR,8.2,37070,99999
1673,8094,35.35,54.1,SUHINICHI,238.0,277070,99999
1674,8115,-97.86399999999999,55.801,THOMPSON,222.2,710790,99999
1675,8116,-86.344,48.755,MARATHON,315.5,710514,99999
1676,8117,-71.691,45.43899999999999,SHERBROOKE,241.4,716100,99999
1677,8118,-115.78299999999999,54.15,WHITECOURT  ALTA,785.0,712560,99999
1678,8126,8.325,50.05,WIESBADEN AAF,140.5,106330,99999
1679,8133,31.65,48.833,NOVO-MYRHOROD,179.0,335980,99999
1680,8138,15.65,47.45,FISHBACH,1050.0,111730,99999
1681,8139,46.633,57.667,SAKUN'JA,175.0,273730,99999
1682,8141,9.133,60.567,NESBYEN-TODOKK,166.0,13730,99999
1683,8143,20.417,45.367,ZRENJANIN,82.0,131730,99999
1684,8144,-109.133,54.016999999999996,LOON LAKE,545.6,712730,99999
1685,8147,18.6,48.766999999999996,PRIEVIDZA,261.0,118670,99999
1686,8169,-2.333,46.7,SAINT-SAUVEUR,32.0,73000,99999
1687,8174,-99.35,49.9,CARBERRY CS,384.0,711700,99999
1688,8183,-108.51700000000001,54.133,MEADOW LAKE,481.0,719700,99999
1689,8203,-84.15,49.733000000000004,NAGAGAMI (AUT)  ONT,264.0,718320,99999
1690,8204,134.267,46.8,BIKIN,68.0,318320,99999
1691,8206,66.8,69.717,MARESALE,25.0,230320,99999
1692,8217,-111.21700000000001,51.783,HEMARUKA AGCM,780.0,717930,99999
1693,8219,73.35,47.217,MOIYNTY,582.0,357930,99999
1694,8220,29.666999999999998,62.55,LIPERI TUISKAVANLUOTO,79.5,27930,99999
1695,8221,9.55,46.75,VALBELLA,1560.0,67930,99999
1696,8238,6.364,47.783,SAINT SAUVEUR,278.3,72920,99999
1697,8241,-4.367,51.717,PEMBRY SANDS,3.0,36050,99999
